### GPS系统NMEA语句（25条）
$GPGGA,010000.00,3958.4658,N,11623.4567,E,1,08,1.2,50.5,M,9.9,M,,*57
$GPGGA,010001.00,3958.4659,N,11623.4568,E,1,08,1.2,50.6,M,9.9,M,,*53
$GPGGA,010002.00,3958.4660,N,11623.4569,E,1,08,1.2,50.7,M,9.9,M,,*54
$GPRMC,010000.00,A,3958.4658,N,11623.4567,E,0.0,0.0,010124,5.2,E,A*43
$GPRMC,010005.00,A,3958.4662,N,11623.4571,E,1.5,30.0,010124,5.2,E,A*4D
$GPRMC,010010.00,A,3958.4667,N,11623.4576,E,2.1,35.0,010124,5.2,E,A*46
$GPGSV,3,1,08,01,60,090,45,02,55,180,42,03,50,270,39,04,45,000,36*70
$GPGSV,3,2,08,05,40,090,33,06,35,180,30,07,30,270,27,08,25,000,24*76
$GPGSV,3,3,08,,,,,,,,,,,,,,,,*71
$GPVTG,0.0,T,,M,0.0,N,0.0,K,A*34
$GPVTG,30.0,T,35.2,M,1.5,N,2.8,K,A*3C
$GPVTG,35.0,T,40.2,M,2.1,N,3.9,K,A*31
$GPGSA,A,3,01,02,03,04,05,,,,,,,,3.0,1.2,2.7*30
$GPGSA,A,3,01,02,03,04,05,06,,,,,,,3.2,1.2,2.9*37
$GPGSA,A,3,01,02,03,04,05,06,07,,,,,,3.4,1.2,3.1*36
$GPGLL,3958.4658,N,11623.4567,E,010000.00,A,A*5F
$GPGLL,3958.4662,N,11623.4571,E,010005.00,A,A*5B
$GPGLL,3958.4667,N,11623.4576,E,010010.00,A,A*5C
$GPZDA,010000.00,01,01,2024,00,00*49
$GPZDA,010005.00,01,01,2024,00,00*4C
$GPZDA,010010.00,01,01,2024,00,00*47
$GPHDT,0.0,T*3F
$GPHDT,30.0,T*3C
$GPHDT,35.0,T*37
$GPMSS,010000.00,0.0,0.0,0.0,0.0,0.0,0.0*54

### BDS（北斗）系统NMEA语句（25条）
$BDGGA,020000.00,3114.5555,N,12128.6666,E,1,07,1.8,30.2,M,8.5,M,,*5A
$BDGGA,020001.00,3114.5556,N,12128.6667,E,1,07,1.8,30.3,M,8.5,M,,*56
$BDGGA,020002.00,3114.5557,N,12128.6668,E,1,07,1.8,30.4,M,8.5,M,,*57
$BDRMC,020000.00,A,3114.5555,N,12128.6666,E,0.0,0.0,010124,3.5,E,A*41
$BDRMC,020005.00,A,3114.5559,N,12128.6670,E,1.2,45.0,010124,3.5,E,A*4E
$BDRMC,020010.00,A,3114.5563,N,12128.6674,E,1.8,50.0,010124,3.5,E,A*49
$BDGSV,2,1,07,101,58,080,47,102,53,170,44,103,48,260,41,104,43,350,38*72
$BDGSV,2,2,07,105,38,070,35,106,33,160,32,107,28,250,29,*76
$BDVTG,0.0,T,,M,0.0,N,0.0,K,A*34
$BDVTG,45.0,T,48.5,M,1.2,N,2.2,K,A*3E
$BDVTG,50.0,T,53.5,M,1.8,N,3.3,K,A*35
$BDGSA,A,3,101,102,103,104,105,,,,,,,,3.2,1.8,2.7*33
$BDGSA,A,3,101,102,103,104,105,106,,,,,,,3.4,1.8,2.9*34
$BDGSA,A,3,101,102,103,104,105,106,107,,,,,,3.6,1.8,3.1*35
$BDGLL,3114.5555,N,12128.6666,E,020000.00,A,A*5D
$BDGLL,3114.5559,N,12128.6670,E,020005.00,A,A*59
$BDGLL,3114.5563,N,12128.6674,E,020010.00,A,A*5A
$BDZDA,020000.00,01,01,2024,00,00*48
$BDZDA,020005.00,01,01,2024,00,00*4D
$BDZDA,020010.00,01,01,2024,00,00*48
$BDHDT,0.0,T*3F
$BDHDT,45.0,T*37
$BDHDT,50.0,T*32
$BDMSS,020000.00,0.0,0.0,0.0,0.0,0.0,0.0*53
$BDMSS,020005.00,0.3,0.2,0.1,0.4,0.5,0.6*58

### GLN（格洛纳斯）系统NMEA语句（25条）
$GNGGA,030000.00,5545.3333,N,03737.2222,E,1,06,2.1,120.7,M,11.2,M,,*5D
$GNGGA,030001.00,5545.3334,N,03737.2223,E,1,06,2.1,120.8,M,11.2,M,,*59
$GNGGA,030002.00,5545.3335,N,03737.2224,E,1,06,2.1,120.9,M,11.2,M,,*58
$GN RMC,030000.00,A,5545.3333,N,03737.2222,E,0.0,0.0,010124,2.8,E,A*47
$GNRMC,030005.00,A,5545.3337,N,03737.2226,E,2.0,60.0,010124,2.8,E,A*45
$GNRMC,030010.00,A,5545.3341,N,03737.2230,E,2.5,65.0,010124,2.8,E,A*4C
$GN GSV,2,1,06,65,56,060,46,66,51,150,43,67,46,240,40,68,41,330,37*71
$GNGSV,2,2,06,69,36,050,34,70,31,140,31,*75
$GNVTG,0.0,T,,M,0.0,N,0.0,K,A*34
$GNVTG,60.0,T,62.8,M,2.0,N,3.7,K,A*3B
$GNVTG,65.0,T,67.8,M,2.5,N,4.6,K,A*30
$GNGSA,A,3,65,66,67,68,69,,,,,,,,3.5,2.1,2.8*32
$GNGSA,A,3,65,66,67,68,69,70,,,,,,,3.7,2.1,3.0*33
$GNGLL,5545.3333,N,03737.2222,E,030000.00,A,A*5B
$GNGLL,5545.3337,N,03737.2226,E,030005.00,A,A*5F
$GNGLL,5545.3341,N,03737.2230,E,030010.00,A,A*5E
$GNZDA,030000.00,01,01,2024,00,00*4B
$GNZDA,030005.00,01,01,2024,00,00*4E
$GNZDA,030010.00,01,01,2024,00,00*4B
$GNHDT,0.0,T*3F
$GNHDT,60.0,T*32
$GNHDT,65.0,T*37
$GNMSS,030000.00,0.0,0.0,0.0,0.0,0.0,0.0*57
$GNMSS,030005.00,0.4,0.3,0.2,0.5,0.6,0.7*52
$GNMSS,030010.00,0.5,0.4,0.3,0.6,0.7,0.8*51

### GAL（伽利略）系统NMEA语句（25条）
$GAGGA,040000.00,4042.6000,N,00741.5000,E,1,07,1.5,60.0,M,0.0,M,,*59
$GAGGA,040001.00,4042.6001,N,00741.5001,E,1,07,1.5,60.1,M,0.0,M,,*5F
$GAGGA,040002.00,4042.6002,N,00741.5002,E,1,07,1.5,60.2,M,0.0,M,,*5E
$GARMC,040000.00,A,4042.6000,N,00741.5000,E,0.0,0.0,010124,2.0,E,A*4E
$GARMC,040005.00,A,4042.6005,N,00741.5008,E,1.3,25.0,010124,2.0,E,A*43
$GARMC,040010.00,A,4042.6010,N,00741.5016,E,1.9,30.0,010124,2.0,E,A*44
$GAGSV,2,1,07,01,55,075,48,02,50,165,45,03,45,255,42,04,40,345,39*73
$GAGSV,2,2,07,05,35,060,36,06,30,150,33,07,25,240,30,*77
$GAVTG,0.0,T,,M,0.0,N,0.0,K,A*34
$GAVTG,25.0,T,27.0,M,1.3,N,2.4,K,A*38
$GAVTG,30.0,T,32.0,M,1.9,N,3.5,K,A*3D
$GAGSA,A,3,01,02,03,04,05,,,,,,,,2.9,1.5,2.5*31
$GAGSA,A,3,01,02,03,04,05,06,,,,,,,3.1,1.5,2.7*32
$GAGSA,A,3,01,02,03,04,05,06,07,,,,,,3.3,1.5,2.9*33
$GAGLL,4042.6000,N,00741.5000,E,040000.00,A,A*5C
$GAGLL,4042.6005,N,00741.5008,E,040005.00,A,A*58
$GAGLL,4042.6010,N,00741.5016,E,040010.00,A,A*59
$GAZDA,040000.00,01,01,2024,00,00*4A
$GAZDA,040005.00,01,01,2024,00,00*4F
$GAZDA,040010.00,01,01,2024,00,00*4A
$GAHDT,0.0,T*3F
$GAHDT,25.0,T*39
$GAHDT,30.0,T*3C
$GAMSS,040000.00,0.0,0.0,0.0,0.0,0.0,0.0*56
$GAMSS,040005.00,0.2,0.1,0.0,0.3,0.4,0.5*5B
$GAMSS,040010.00,0.3,0.2,0.1,0.4,0.5,0.6*5A