084551.00,3801.0432849,N,11227.1312888,E,1,38,0.5,875.3710,M,-23.2602,M,,*4E
$GPVTG,,T,,M,0.02,N,0.03,K,A*22
$GPGSA,A,3,03,10,25,26,28,29,31,32,,,,,0.9,0.5,0.8*35
$GPGSA,A,3,66,67,76,77,78,,,,,,,,0.9,0.5,0.8*39
$GPGSA,A,3,07,21,27,29,30,,,,,,,,0.9,0.5,0.8*3F
$GPGSA,A,3,01,02,03,04,05,06,08,09,13,14,16,24,0.9,0.5,0.8*36
$GPGSA,A,3,25,26,33,38,39,42,59,60,,,,,0.9,0.5,0.8*38
$GPGST,084551.00,8.717,2.126,1.938,320.889,2.053,2.015,4.433*5D
$GPGSV,3,1,11,28,67,013,42,29,18,096,39,10,15,176,37,03,25,314,35*76
$GPGSV,3,2,11,25,29,047,36,26,47,205,42,32,56,111,46,31,60,293,44*79
$GPGSV,3,3,11,12,01,038,,01,03,277,,16,08,207,*4A
$GLGSV,2,1,07,77,71,250,37,65,19,143,33,78,14,224,37,67,47,330,37*65
$GLGSV,2,2,07,76,53,028,42,66,70,126,39,68,01,325,*5A
$GAGSV,3,1,09,29,70,337,44,30,37,050,38,19,25,307,29,21,27,197,37*6C
$GAGSV,3,2,09,07,47,104,41,27,68,134,44,12,06,303,,10,02,324,*6A
$GAGSV,3,3,09,33,07,253,27*57
$GBGSV,7,1,26,24,82,277,45,07,11,174,34,05,22,248,41,38,27,183,37*6A
$GBGSV,7,2,26,04,23,121,44,25,25,238,37,50,27,150,,62,24,119,*6F
$GBGSV,7,3,26,60,35,227,39,01,35,135,38,02,40,223,36,08,40,194,37*69
$GBGSV,7,4,26,59,38,139,41,26,43,048,42,13,46,206,39,03,46,183,39*63
$GBGSV,7,5,26,61,46,183,,09,59,279,41,42,53,158,43,33,64,300,46*66
$GBGSV,7,6,26,06,69,301,41,16,72,324,43,39,72,344,43,14,78,205,42*60
$GBGSV,7,7,26,21,06,146,32,10,05,183,30*65
$GPZDA,084552.00,11,09,2025,,*64
$GPRMC,084552.00,A,3801.0432922,N,11227.1313038,E,0.0,,110925,5.7,W,A*01
$GPGLL,3801.0432922,N,11227.1313038,E,084552.00,A,A*6D
$GPGGA,084552.00,3801.0432922,N,11227.1313038,E,1,37,0.6,875.3561,M,-23.2602,M,,*4B
$GPVTG,,T,,M,0.04,N,0.08,K,A*2F
$GPGSA,A,3,10,25,26,28,29,31,32,,,,,,1.0,0.6,0.9*3C
$GPGSA,A,3,66,67,76,77,78,,,,,,,,1.0,0.6,0.9*33
$GPGSA,A,3,07,21,27,29,30,,,,,,,,1.0,0.6,0.9*35
$GPGSA,A,3,01,02,03,04,05,06,08,09,13,14,16,24,1.0,0.6,0.9*3C
$GPGSA,A,3,25,26,33,38,39,42,59,60,,,,,1.0,0.6,0.9*32
$GPGST,084552.00,8.602,2.920,1.931,311.827,2.421,2.528,5.259*5B
$GPGSV,3,1,11,28,67,013,42,29,18,096,39,10,15,176,37,03,25,314,35*76
$GPGSV,3,2,11,25,29,047,36,26,47,205,42,32,56,111,45,31,60,293,44*7A
$GPGSV,3,3,11,12,01,038,,01,03,277,,16,08,207,*4A
$GLGSV,2,1,07,77,71,250,38,65,19,143,33,78,14,224,38,67,47,330,37*65
$GLGSV,2,2,07,76,53,028,42,66,70,126,40,68,01,325,*54
$GAGSV,3,1,09,29,70,337,43,30,37,050,38,19,25,307,28,21,28,197,37*65
$GAGSV,3,2,09,07,47,104,40,27,68,134,44,12,06,303,,10,02,324,*6B
$GAGSV,3,3,09,33,07,253,27*57
$GBGSV,7,1,26,24,82,277,46,07,11,174,35,05,22,248,41,38,27,183,40*68
$GBGSV,7,2,26,04,23,121,44,25,25,238,38,50,27,150,,62,24,119,*60
$GBGSV,7,3,26,60,35,227,40,01,35,135,39,02,40,223,37,08,40,194,38*68
$GBGSV,7,4,26,59,38,139,42,26,43,048,43,13,46,206,40,03,46,183,40*61
$GBGSV,7,5,26,61,46,183,,09,59,279,42,42,53,158,44,33,64,300,47*63
$GBGSV,7,6,26,06,69,301,42,16,72,324,44,39,72,344,44,14,78,205,43*62
$GBGSV,7,7,26,21,06,146,33,10,05,183,31*65
$GPZDA,084553.00,11,09,2025,,*65
$GPRMC,084553.00,A,3801.0433072,N,11227.1313215,E,0.0,,110925,5.7,W,A*00
$GPGLL,3801.0433072,N,11227.1313215,E,084553.00,A,A*6C
$GPGGA,084553.00,3801.0433072,N,11227.1313215,E,1,39,0.5,875.3609,M,-23.2601,M,,*49
$GPVTG,,T,,M,0.02,N,0.04,K,A*25
$GPGSA,A,3,03,10,25,26,28,29,31,32,,,,,0.9,0.5,0.8*35
$GPGSA,A,3,66,67,76,77,78,,,,,,,,0.9,0.5,0.8*39
$GPGSA,A,3,07,21,27,29,30,,,,,,,,0.9,0.5,0.8*3F
$GPGSA,A,3,01,02,03,04,05,06,07,08,09,13,14,16,0.9,0.5,0.8*37
$GPGSA,A,3,24,25,26,33,38,39,42,59,60,,,,0.9,0.5,0.8*3E
$GPGST,084553.00,8.373,2.527,1.975,311.781,2.237,2.299,4.829*51
$GPGSV,3,1,11,28,67,013,43,29,18,096,40,10,15,176,38,03,25,314,36*75
$GPGSV,3,2,11,25,29,047,37,26,47,205,43,32,56,111,47,31,60,293,45*79
$GPGSV,3,3,11,12,01,038,,01,03,277,,16,08,207,*4A
$GLGSV,2,1,07,77,71,250,38,65,19,143,34,78,14,224,38,67,47,330,38*6D
$GLGSV,2,2,07,76,53,028,43,66,70,126,40,68,01,325,*55
$GAGSV,3,1,09,29,70,337,45,30,37,050,39,19,25,307,30,21,28,197,38*64
$GAGSV,3,2,09,07,47,104,41,27,68,134,45,12,06,303,,10,02,324,*6B
$GAGSV,3,3,09,33,07,253,28*58
$GBGSV,7,1,26,24,82,277,46,07,11,174,35,05,22,248,40,38,27,183,40*69
$GBGSV,7,2,26,04,23,121,44,25,25,238,38,50,27,150,,62,24,119,*60
$GBGSV,7,3,26,60,35,227,40,01,35,135,39,02,40,223,37,08,40,194,38*68
$GBGSV,7,4,26,59,38,139,42,26,43,048,43,13,46,206,41,03,46,183,40*60
$GBGSV,7,5,26,61,46,183,,09,59,279,42,42,53,158,44,33,64,300,47*63
$GBGSV,7,6,26,06,69,301,42,16,72,324,44,39,72,344,44,14,78,205,43*62
$GBGSV,7,7,26,21,06,146,33,10,05,183,30*64
$GPZDA,084554.00,11,09,2025,,*62
$GPRMC,084554.00,A,3801.0433207,N,11227.1313443,E,0.0,,110925,5.7,W,A*02
$GPGLL,3801.0433207,N,11227.1313443,E,084554.00,A,A*6E
$GPGGA,084554.00,3801.0433207,N,11227.1313443,E,1,39,0.5,875.3411,M,-23.2601,M,,*40
$GPVTG,,T,,M,0.01,N,0.01,K,A*23
$GPGSA,A,3,03,10,25,26,28,29,31,32,,,,,0.9,0.5,0.8*35
$GPGSA,A,3,66,67,76,77,78,,,,,,,,0.9,0.5,0.8*39
$GPGSA,A,3,07,21,27,29,30,,,,,,,,0.9,0.5,0.8*3F
$GPGSA,A,3,01,02,03,04,05,06,08,09,13,14,16,21,0.9,0.5,0.8*33
$GPGSA,A,3,24,25,26,33,38,39,42,59,60,,,,0.9,0.5,0.8*3E
$GPGST,084554.00,8.048,1.808,1.716,318.123,1.768,1.758,3.794*5B
$GPGSV,3,1,11,28,67,013,44,29,18,096,41,10,15,176,39,03,25,314,37*73
$GPGSV,3,2,11,25,29,047,38,26,47,205,44,32,56,111,48,31,60,293,46*7D
$GPGSV,3,3,11,12,01,038,,01,03,277,,16,08,207,*4A
$GLGSV,2,1,07,77,71,250,39,65,19,143,34,78,14,224,38,67,47,330,38*6C
$GLGSV,2,2,07,76,53,028,43,66,70,126,41,68,01,325,*54
$GAGSV,3,1,09,29,70,337,46,30,37,050,40,19,25,307,31,21,28,197,39*69
$GAGSV,3,2,09,07,47,104,43,27,68,134,46,12,06,303,,10,02,324,*6A
$GAGSV,3,3,09,33,07,253,30*51
$GBGSV,7,1,26,24,82,277,45,07,11,174,33,05,22,248,41,38,27,183,40*6D
$GBGSV,7,2,26,04,23,121,44,25,25,238,40,50,27,150,,62,24,119,*6F
$GBGSV,7,3,26,60,35,227,39,01,35,135,37,02,40,223,35,08,40,194,37*65
$GBGSV,7,4,26,59,38,139,41,26,43,048,42,13,46,206,39,03,46,183,39*63
$GBGSV,7,5,26,61,46,183,,09,59,279,41,42,53,158,43,33,64,300,45*65
$GBGSV,7,6,26,06,69,301,41,16,72,324,43,39,72,344,43,14,78,205,42*60
$GBGSV,7,7,26,21,06,146,38,10,05,183,29*67
$GPZDA,084555.00,11,09,2025,,*63
$GPRMC,084555.00,A,3801.0433396,N,11227.1313617,E,0.0,,110925,5.7,W,A*09
$GPGLL,3801.0433396,N,11227.1313617,E,084555.00,A,A*65
$GPGGA,084555.00,3801.0433396,N,11227.1313617,E,1,38,0.5,875.3173,M,-23.2601,M,,*4B
$GPVTG,,T,,M,0.02,N,0.04,K,A*25
$GPGSA,A,3,03,10,25,26,28,29,31,32,,,,,0.9,0.5,0.8*35
$GPGSA,A,3,66,67,76,77,78,,,,,,,,0.9,0.5,0.8*39
$GPGSA,A,3,07,21,27,29,30,,,,,,,,0.9,0.5,0.8*3F
$GPGSA,A,3,01,03,04,05,06,08,09,13,14,16,21,24,0.9,0.5,0.8*37
$GPGSA,A,3,25,26,33,38,39,42,59,60,,,,,0.9,0.5,0.8*38
$GPGST,084555.00,10.979,2.227,2.096,323.937,2.183,2.142,4.671*66
$GPGSV,3,1,11,28,67,013,43,29,18,096,40,10,15,176,38,03,25,314,36*75
$GPGSV,3,2,11,25,28,047,37,26,47,205,43,32,56,111,46,31,60,293,45*79
$GPGSV,3,3,11,12,01,038,,01,03,277,,16,08,207,*4A
$GLGSV,2,1,07,77,71,250,38,65,19,143,34,78,14,224,38,67,47,330,38*6D
$GLGSV,2,2,07,76,52,028,43,66,69,126,40,68,01,325,*5C
$GAGSV,3,1,09,29,70,337,45,30,37,050,39,19,25,307,30,21,28,197,38*64
$GAGSV,3,2,09,07,47,104,41,27,68,133,45,12,06,303,,10,02,324,*6C
$GAGSV,3,3,09,33,07,253,29*59
$GBGSV,7,1,26,24,82,277,48,07,11,174,32,05,22,248,41,38,27,183,40*61
$GBGSV,7,2,26,04,23,121,44,25,25,238,40,50,27,150,,62,24,119,*6F
$GBGSV,7,3,26,60,35,227,42,01,35,135,37,02,40,223,35,08,40,194,36*68
$GBGSV,7,4,26,59,38,139,43,26,43,048,41,13,46,206,39,03,46,183,38*63
$GBGSV,7,5,26,61,46,183,,09,59,279,40,42,53,158,47,33,64,300,47*62
$GBGSV,7,6,26,06,69,301,40,16,72,324,42,39,72,344,47,14,78,205,41*67
$GBGSV,7,7,26,21,05,146,38,10,05,183,29*64
$GPZDA,084556.00,11,09,2025,,*60
$GPRMC,084556.00,A,3801.0433645,N,11227.1313813,E,0.0,,110925,5.7,W,A*0B
$GPGLL,3801.0433645,N,11227.1313813,E,084556.00,A,A*67
$GPGGA,084556.00,3801.0433645,N,11227.1313813,E,1,39,0.5,875.2983,M,-23.2601,M,,*4E
$GPVTG,,T,,M,0.03,N,0.05,K,A*25
$GPGSA,A,3,03,10,25,26,28,29,31,32,,,,,0.9,0.5,0.8*35
$GPGSA,A,3,66,67,76,77,78,,,,,,,,0.9,0.5,0.8*39
$GPGSA,A,3,07,21,27,29,30,,,,,,,,0.9,0.5,0.8*3F
$GPGSA,A,3,01,02,03,04,05,06,08,09,13,14,16,21,0.9,0.5,0.8*33
$GPGSA,A,3,24,25,26,33,38,39,42,59,60,,,,0.9,0.5,0.8*3E
$GPGST,084556.00,12.734,2.856,2.681,326.883,2.805,2.734,5.973*6B
$GPGSV,3,1,11,28,67,013,43,29,18,096,40,10,15,176,39,03,25,314,36*74
$GPGSV,3,2,11,25,28,047,37,26,47,205,43,32,56,111,47,31,60,293,45*78
$GPGSV,3,3,11,12,01,038,,01,03,277,,16,08,207,*4A
$GLGSV,2,1,07,77,71,250,38,65,19,143,33,78,14,224,38,67,47,330,37*65
$GLGSV,2,2,07,76,52,028,42,66,69,126,40,68,01,325,*5D
$GAGSV,3,1,09,29,70,337,45,30,37,050,39,19,25,307,30,21,28,197,38*64
$GAGSV,3,2,09,07,47,104,42,27,68,133,45,12,06,303,,10,02,324,*6F
$GAGSV,3,3,09,33,07,253,29*59
$GBGSV,7,1,26,24,82,277,44,07,11,174,33,05,22,248,41,38,27,183,37*6C
$GBGSV,7,2,26,04,23,121,44,25,25,238,36,50,27,150,,62,24,119,*6E
$GBGSV,7,3,26,60,35,227,38,01,35,135,37,02,40,223,35,08,40,194,36*65
$GBGSV,7,4,26,59,38,139,43,26,43,048,41,13,46,206,39,03,46,183,38*63
$GBGSV,7,5,26,61,46,183,,09,59,279,40,42,53,158,42,33,64,300,45*65
$GBGSV,7,6,26,06,69,301,40,16,72,324,42,39,72,344,47,14,78,205,41*67
$GBGSV,7,7,26,21,05,146,31,10,05,183,29*6D
$GPZDA,084557.00,11,09,2025,,*61
$GPRMC,084557.00,A,3801.0433963,N,11227.1314075,E,0.0,,110925,5.7,W,A*0E
$GPGLL,3801.0433963,N,11227.1314075,E,084557.00,A,A*62
$GPGGA,084557.00,3801.0433963,N,11227.1314075,E,1,38,0.5,875.2712,M,-23.2601,M,,*4C
$GPVTG,,T,,M,0.02,N,0.04,K,A*25
$GPGSA,A,3,03,10,25,26,28,29,31,32,,,,,0.9,0.5,0.8*35
$GPGSA,A,3,66,67,76,77,78,,,,,,,,0.9,0.5,0.8*39
$GPGSA,A,3,07,21,27,29,30,,,,,,,,0.9,0.5,0.8*3F
$GPGSA,A,3,01,02,03,04,05,06,08,09,13,14,16,24,0.9,0.5,0.8*36
$GPGSA,A,3,25,26,33,38,39,42,59,60,,,,,0.9,0.5,0.8*38
$GPGST,084557.00,15.865,3.580,3.354,322.332,3.498,3.440,7.558*67
$GPGSV,3,1,11,28,67,013,43,29,18,096,40,10,15,176,38,03,25,314,36*75
$GPGSV,3,2,11,25,28,047,37,26,47,205,43,32,56,111,47,31,60,293,45*78
$GPGSV,3,3,11,12,01,038,,01,03,277,,16,08,207,*4A
$GLGSV,2,1,07,77,71,250,38,65,19,143,34,78,14,224,38,67,47,330,39*6C
$GLGSV,2,2,07,76,52,028,43,66,69,126,41,68,01,325,*5D
$GAGSV,3,1,09,29,70,337,45,30,37,050,39,19,25,307,30,21,28,197,38*64
$GAGSV,3,2,09,07,47,104,42,27,68,133,45,12,06,303,,10,02,324,*6F
$GAGSV,3,3,09,33,07,253,29*59
$GBGSV,7,1,26,24,82,277,46,07,11,174,34,05,22,248,41,38,27,183,38*66
$GBGSV,7,2,26,04,23,121,44,25,25,238,38,50,27,150,,62,24,119,*60
$GBGSV,7,3,26,60,35,227,39,01,35,135,38,02,40,223,36,08,40,194,37*69
$GBGSV,7,4,26,59,38,139,41,26,43,048,42,13,46,206,40,03,46,183,39*6D
$GBGSV,7,5,26,61,46,183,,09,59,279,41,42,53,158,43,33,64,300,46*66
$GBGSV,7,6,26,06,69,301,41,16,72,324,43,39,72,344,43,14,78,205,42*60
$GBGSV,7,7,26,21,05,146,32,10,05,183,30*66
$GPZDA,084558.00,11,09,2025,,*6E
$GPRMC,084558.00,A,3801.0434213,N,11227.1314561,E,0.0,,110925,5.7,W,A*0A
$GPGLL,3801.0434213,N,11227.1314561,E,084558.00,A,A*66
$GPGGA,084558.00,3801.0434213,N,11227.1314561,E,1,38,0.5,875.2279,M,-23.2601,M,,*40
$GPVTG,,T,,M,0.02,N,0.04,K,A*25
$GPGSA,A,3,03,10,25,26,28,29,31,32,,,,,0.9,0.5,0.8*35
$GPGSA,A,3,66,67,76,77,78,,,,,,,,0.9,0.5,0.8*39
$GPGSA,A,3,07,21,27,29,30,,,,,,,,0.9,0.5,0.8*3F
$GPGSA,A,3,01,02,03,04,05,06,08,09,13,14,16,24,0.9,0.5,0.8*36
$GPGSA,A,3,25,26,33,38,39,42,59,60,,,,,0.9,0.5,0.8*38
$GPGST,084558.00,16.457,4.287,3.986,321.323,4.172,4.106,8.968*61
$GPGSV,3,1,11,28,67,013,44,29,18,096,41,10,15,176,39,03,25,314,37*73
$GPGSV,3,2,11,25,28,047,38,26,47,205,44,32,56,111,48,31,60,294,46*7B
$GPGSV,3,3,11,12,01,038,,01,03,277,,16,08,207,*4A
$GLGSV,2,1,07,77,71,250,39,65,19,143,34,78,14,224,38,67,47,330,39*6D
$GLGSV,2,2,07,76,52,028,44,66,69,126,41,68,01,325,*5A
$GAGSV,3,1,09,29,70,337,46,30,37,050,40,19,25,307,31,21,28,197,39*69
$GAGSV,3,2,09,07,47,104,43,27,68,133,46,12,06,303,,10,02,324,*6D
$GAGSV,3,3,09,33,07,253,30*51
$GBGSV,7,1,26,24,82,277,46,07,11,174,34,05,22,248,41,38,27,183,38*66
$GBGSV,7,2,26,04,23,121,44,25,25,238,38,50,27,150,,62,24,119,*60
$GBGSV,7,3,26,60,35,227,40,01,35,135,38,02,40,223,36,08,40,194,37*67
$GBGSV,7,4,26,59,38,139,42,26,43,048,43,13,46,206,40,03,46,183,40*61
$GBGSV,7,5,26,61,46,183,,09,59,279,42,42,53,158,44,33,64,300,46*62
$GBGSV,7,6,26,06,69,301,42,16,72,324,44,39,72,344,44,14,78,205,43*62
$GBGSV,7,7,26,21,05,146,32,10,05,183,31*67
$GPZDA,084559.00,11,09,2025,,*6F
$GPRMC,084559.00,A,3801.0434500,N,11227.1314980,E,0.0,,110925,5.7,W,A*0D
$GPGLL,3801.0434500,N,11227.1314980,E,084559.00,A,A*61
$GPGGA,084559.00,3801.0434500,N,11227.1314980,E,1,38,0.5,875.1759,M,-23.2601,M,,*43
$GPVTG,,T,,M,0.01,N,0.02,K,A*20
$GPGSA,A,3,03,10,25,26,28,29,31,32,,,,,0.9,0.5,0.8*35
$GPGSA,A,3,66,67,76,77,78,,,,,,,,0.9,0.5,0.8*39
$GPGSA,A,3,07,21,27,29,30,,,,,,,,0.9,0.5,0.8*3F
$GPGSA,A,3,01,02,03,04,05,06,08,09,13,14,16,24,0.9,0.5,0.8*36
$GPGSA,A,3,25,26,33,38,39,42,59,60,,,,,0.9,0.5,0.8*38
$GPGST,084559.00,17.042,4.351,4.030,323.112,4.238,4.148,9.132*6B
$GPGSV,3,1,11,28,67,013,43,29,18,096,40,10,15,176,38,03,25,314,37*74
$GPGSV,3,2,11,25,28,047,37,26,47,205,43,32,56,111,47,31,60,294,45*7F
$GPGSV,3,3,11,12,01,038,,01,03,277,,16,08,207,*4A
$GLGSV,2,1,07,77,71,250,38,65,19,143,33,78,14,224,38,67,47,330,38*6A
$GLGSV,2,2,07,76,52,028,43,66,69,126,41,68,01,325,*5D
$GAGSV,3,1,09,29,70,337,45,30,37,050,39,19,25,307,30,21,28,197,39*65
$GAGSV,3,2,09,07,47,104,42,27,68,133,45,12,06,303,,10,02,324,*6F
$GAGSV,3,3,09,33,07,253,28*58
$GBGSV,7,1,26,24,82,277,45,07,11,174,33,05,22,248,41,38,27,183,38*62
$GBGSV,7,2,26,04,23,121,44,25,25,238,37,50,27,150,,62,24,119,*6F
$GBGSV,7,3,26,60,35,227,39,01,35,135,38,02,40,223,35,08,40,194,37*6A
$GBGSV,7,4,26,59,38,139,41,26,43,048,42,13,46,206,39,03,46,183,39*63
$GBGSV,7,5,26,61,46,183,,09,59,279,41,42,53,158,43,33,64,300,46*66
$GBGSV,7,6,26,06,69,301,41,16,72,324,43,39,72,344,43,14,78,205,42*60
$GBGSV,7,7,26,21,05,146,32,10,05,183,30*66
$GPZDA,084600.00,11,09,2025,,*60
$GPRMC,084600.00,A,3801.0434813,N,11227.1315315,E,0.0,,110925,5.7,W,A*0A
$GPGLL,3801.0434813,N,11227.1315315,E,084600.00,A,A*66
$GPGGA,084600.00,3801.0434813,N,11227.1315315,E,1,38,0.5,875.1226,M,-23.2601,M,,*49
$GPVTG,,T,,M,0.01,N,0.02,K,A*20
$GPGSA,A,3,03,10,25,26,28,29,31,32,,,,,0.9,0.5,0.8*35
$GPGSA,A,3,66,67,76,77,78,,,,,,,,0.9,0.5,0.8*39
$GPGSA,A,3,07,21,27,29,30,,,,,,,,0.9,0.5,0.8*3F
$GPGSA,A,3,01,02,03,04,05,06,08,09,13,14,16,24,0.9,0.5,0.8*36
$GPGSA,A,3,25,26,33,38,39,42,59,60,,,,,0.9,0.5,0.8*38
$GPGST,084600.00,17.301,4.481,4.190,324.138,4.384,4.293,9.439*63
$GPGSV,3,1,11,28,67,013,44,29,18,096,40,10,15,176,38,03,25,314,36*72
$GPGSV,3,2,11,25,28,047,37,26,47,205,43,32,56,111,47,31,60,294,45*7F
$GPGSV,3,3,11,12,01,038,,01,03,277,,16,08,207,*4A
$GLGSV,2,1,07,77,71,250,38,65,19,143,33,78,14,224,38,67,47,330,38*6A
$GLGSV,2,2,07,76,52,028,43,66,69,126,41,68,01,325,*5D
$GAGSV,3,1,09,29,70,337,45,30,37,050,39,19,25,307,30,21,28,197,38*64
$GAGSV,3,2,09,07,47,104,42,27,68,133,45,12,06,303,,10,02,324,*6F
$GAGSV,3,3,09,33,07,253,29*59
$GBGSV,7,1,26,24,82,277,46,07,11,174,34,05,22,248,40,38,27,183,38*67
$GBGSV,7,2,26,04,23,121,44,25,25,238,38,50,27,150,,62,24,119,*60
$GBGSV,7,3,26,60,35,227,40,01,35,135,38,02,40,223,37,08,40,194,38*69
$GBGSV,7,4,26,59,38,139,42,26,43,048,43,13,46,206,40,03,46,183,40*61
$GBGSV,7,5,26,61,46,183,,09,59,279,42,42,53,158,44,33,64,300,47*63
$GBGSV,7,6,26,06,69,301,42,16,72,324,44,39,72,344,44,14,78,205,43*62
$GBGSV,7,7,26,21,05,146,32,10,05,183,31*67
$GPZDA,084601.00,11,09,2025,,*61
$GPRMC,084601.00,A,3801.0435092,N,11227.1315679,E,0.0,,110925,5.7,W,A*04
$GPGLL,3801.0435092,N,11227.1315679,E,084601.00,A,A*68
$GPGGA,084601.00,3801.0435092,N,11227.1315679,E,1,39,0.5,875.0865,M,-23.2601,M,,*4A
$GPVTG,,T,,M,0.01,N,0.02,K,A*20
$GPGSA,A,3,03,10,25,26,28,29,31,32,,,,,0.9,0.5,0.8*35
$GPGSA,A,3,66,67,76,77,78,,,,,,,,0.9,0.5,0.8*39
$GPGSA,A,3,07,21,27,29,30,,,,,,,,0.9,0.5,0.8*3F
$GPGSA,A,3,01,02,03,04,05,06,07,08,09,13,14,16,0.9,0.5,0.8*37
$GPGSA,A,3,24,25,26,33,38,39,42,59,60,,,,0.9,0.5,0.8*3E
$GPGST,084601.00,17.328,4.575,4.288,329.321,4.502,4.365,9.590*6C
$GPGSV,3,1,11,28,67,013,43,29,18,096,40,10,15,176,38,03,25,314,36*75
$GPGSV,3,2,11,25,28,047,37,26,47,205,42,32,56,111,46,31,60,294,44*7E
$GPGSV,3,3,11,12,01,038,,01,03,277,,16,08,207,*4A
$GLGSV,2,1,07,77,71,250,38,65,19,143,34,78,14,224,38,67,47,330,39*6C
$GLGSV,2,2,07,76,52,028,43,66,69,126,41,68,01,325,*5D
$GAGSV,3,1,09,29,70,337,44,30,37,050,38,19,25,307,29,21,28,197,37*63
$GAGSV,3,2,09,07,47,104,41,27,68,133,44,12,06,303,,10,02,324,*6D
$GAGSV,3,3,09,33,07,253,27*57
$GBGSV,7,1,26,24,82,277,48,07,11,174,36,05,22,248,41,38,27,183,41*64
$GBGSV,7,2,26,04,23,121,44,25,25,238,40,50,27,150,,62,24,119,*6F
$GBGSV,7,3,26,60,35,227,42,01,35,135,41,02,40,223,39,08,40,194,40*64
$GBGSV,7,4,26,59,38,139,44,26,43,048,45,13,46,206,42,03,46,183,42*61
$GBGSV,7,5,26,61,46,183,,09,59,279,44,42,53,158,46,33,64,300,49*69
$GBGSV,7,6,26,06,69,301,44,16,72,324,46,39,72,344,46,14,78,205,45*62
$GBGSV,7,7,26,21,05,146,34,10,05,183,33*63
$GPZDA,084602.00,11,09,2025,,*62
$GPRMC,084602.00,A,3801.0435390,N,11227.1316035,E,0.0,,110925,5.7,W,A*0B
$GPGLL,3801.0435390,N,11227.1316035,E,084602.00,A,A*67
$GPGGA,084602.00,3801.0435390,N,11227.1316035,E,1,39,0.5,875.0545,M,-23.2601,M,,*4A
$GPVTG,,T,,M,0.03,N,0.06,K,A*26
$GPGSA,A,3,03,10,25,26,28,29,31,32,,,,,0.9,0.5,0.8*35
$GPGSA,A,3,66,67,76,77,78,,,,,,,,0.9,0.5,0.8*39
$GPGSA,A,3,07,21,27,29,30,,,,,,,,0.9,0.5,0.8*3F
$GPGSA,A,3,01,02,03,04,05,06,07,08,09,13,14,16,0.9,0.5,0.8*37
$GPGSA,A,3,24,25,26,33,38,39,42,59,60,,,,0.9,0.5,0.8*3E
$GPGST,084602.00,17.004,4.591,4.245,322.342,4.465,4.377,9.466*6C
$GPGSV,3,1,11,28,67,013,43,29,18,096,40,10,15,176,38,03,25,314,36*75
$GPGSV,3,2,11,25,28,047,37,26,47,205,43,32,56,111,47,31,60,294,45*7F
$GPGSV,3,3,11,12,01,038,,01,03,277,,16,08,207,*4A
$GLGSV,2,1,07,77,71,250,38,65,19,143,34,78,14,224,38,67,47,330,39*6C
$GLGSV,2,2,07,76,52,028,43,66,69,126,41,68,01,325,*5D
$GAGSV,3,1,09,29,70,337,45,30,37,050,39,19,25,307,30,21,28,197,38*64
$GAGSV,3,2,09,07,47,104,41,27,68,133,45,12,06,303,,10,02,324,*6C
$GAGSV,3,3,09,33,07,253,28*58
$GBGSV,7,1,26,24,82,277,48,07,11,174,36,05,22,248,41,38,27,183,41*64
$GBGSV,7,2,26,04,23,121,44,25,25,238,40,50,27,150,,62,24,119,*6F
$GBGSV,7,3,26,60,35,227,42,01,35,135,40,02,40,223,38,08,40,194,40*64
$GBGSV,7,4,26,59,38,139,44,26,43,048,45,13,46,206,42,03,46,183,42*61
$GBGSV,7,5,26,61,46,183,,09,59,279,44,42,53,158,46,33,64,300,48*68
$GBGSV,7,6,26,06,69,301,44,16,72,324,46,39,72,344,46,14,78,205,45*62
$GBGSV,7,7,26,21,05,146,34,10,05,183,33*63
$GPZDA,084603.00,11,09,2025,,*63
$GPRMC,084603.00,A,3801.0435666,N,11227.1316300,E,0.0,,110925,5.7,W,A*03
$GPGLL,3801.0435666,N,11227.1316300,E,084603.00,A,A*6F
$GPGGA,084603.00,3801.0435666,N,11227.1316300,E,1,39,0.5,875.0132,M,-23.2601,M,,*46
$GPVTG,,T,,M,0.01,N,0.01,K,A*23
$GPGSA,A,3,03,10,25,26,28,29,31,32,,,,,0.9,0.5,0.8*35
$GPGSA,A,3,66,67,76,77,78,,,,,,,,0.9,0.5,0.8*39
$GPGSA,A,3,07,21,27,29,30,,,,,,,,0.9,0.5,0.8*3F
$GPGSA,A,3,01,02,03,04,05,06,07,08,09,13,14,16,0.9,0.5,0.8*37
$GPGSA,A,3,24,25,26,33,38,39,42,59,60,,,,0.9,0.5,0.8*3E
$GPGST,084603.00,16.651,4.451,4.194,324.255,4.365,4.284,9.271*63
$GPGSV,3,1,11,28,67,013,43,29,18,096,40,10,15,176,38,03,25,314,36*75
$GPGSV,3,2,11,25,28,047,37,26,47,205,43,32,56,111,46,31,60,294,45*7E
$GPGSV,3,3,11,12,01,038,,01,03,277,,16,08,207,*4A
$GLGSV,2,1,07,77,71,250,38,65,19,143,34,78,14,224,38,67,47,330,38*6D
$GLGSV,2,2,07,76,52,028,42,66,69,126,40,68,01,325,*5D
$GAGSV,3,1,09,29,70,337,45,30,37,050,39,19,25,307,29,21,28,197,38*6C
$GAGSV,3,2,09,07,47,104,41,27,68,133,45,12,06,303,,10,02,324,*6C
$GAGSV,3,3,09,33,07,253,29*59
$GBGSV,7,1,26,24,82,277,47,07,11,174,35,05,22,248,41,38,27,183,40*69
$GBGSV,7,2,26,04,23,121,44,25,25,238,39,50,27,150,,62,24,119,*61
$GBGSV,7,3,26,60,35,227,41,01,35,135,40,02,40,223,37,08,40,194,39*66
$GBGSV,7,4,26,59,38,139,43,26,43,048,44,13,46,206,41,03,46,183,41*67
$GBGSV,7,5,26,61,46,183,,09,59,279,43,42,53,158,45,33,64,300,48*6C
$GBGSV,7,6,26,06,69,301,43,16,72,324,45,39,72,344,45,14,78,205,44*64
$GBGSV,7,7,26,21,05,146,33,10,05,183,32*65
$GPZDA,084604.00,11,09,2025,,*64
$GPRMC,084604.00,A,3801.0435951,N,11227.1316612,E,0.0,,110925,5.7,W,A*09
$GPGLL,3801.0435951,N,11227.1316612,E,084604.00,A,A*65
$GPGGA,084604.00,3801.0435951,N,11227.1316612,E,1,38,0.5,874.9749,M,-23.2601,M,,*4F
$GPVTG,,T,,M,0.02,N,0.04,K,A*25
$GPGSA,A,3,03,10,25,26,28,29,31,32,,,,,0.9,0.5,0.8*35
$GPGSA,A,3,66,67,76,77,78,,,,,,,,0.9,0.5,0.8*39
$GPGSA,A,3,07,21,27,29,30,,,,,,,,0.9,0.5,0.8*3F
$GPGSA,A,3,01,02,03,05,06,07,08,09,13,14,16,24,0.9,0.5,0.8*35
$GPGSA,A,3,25,26,33,38,39,42,59,60,,,,,0.9,0.5,0.8*38
$GPGST,084604.00,16.465,4.313,4.050,321.240,4.212,4.155,9.003*61
$GPGSV,3,1,11,28,67,013,43,29,18,096,40,10,15,176,38,03,25,314,36*75
$GPGSV,3,2,11,25,28,047,37,26,47,205,43,32,56,111,46,31,60,294,45*7E
$GPGSV,3,3,11,12,01,038,,01,03,277,,16,09,207,*4B
$GLGSV,2,1,07,77,71,250,38,65,19,143,33,78,14,224,39,67,47,330,38*6B
$GLGSV,2,2,07,76,52,028,43,66,69,126,41,68,01,325,*5D
$GAGSV,3,1,09,29,70,337,44,30,37,050,39,19,25,307,29,21,28,197,38*6D
$GAGSV,3,2,09,07,47,104,41,27,68,133,45,12,06,303,,10,02,324,*6C
$GAGSV,3,3,09,33,07,253,28*58
$GBGSV,7,1,26,24,82,277,48,07,11,174,36,05,22,248,41,38,27,183,40*65
$GBGSV,7,2,26,04,23,121,34,25,25,238,40,50,27,150,,62,24,119,*68
$GBGSV,7,3,26,60,35,227,42,01,35,135,40,02,40,223,38,08,40,194,39*6A
$GBGSV,7,4,26,59,38,139,43,26,43,048,45,13,46,206,42,03,46,183,42*66
$GBGSV,7,5,26,61,46,183,,09,59,279,43,42,53,158,45,33,64,300,48*6C
$GBGSV,7,6,26,06,69,301,43,16,72,324,45,39,72,344,46,14,78,205,44*67
$GBGSV,7,7,26,21,05,146,34,10,05,183,33*63
$GPZDA,084605.00,11,09,2025,,*65
$GPRMC,084605.00,A,3801.0436171,N,11227.1316890,E,0.0,,110925,5.7,W,A*05
$GPGLL,3801.0436171,N,11227.1316890,E,084605.00,A,A*69
$GPGGA,084605.00,3801.0436171,N,11227.1316890,E,1,38,0.5,874.9319,M,-23.2601,M,,*42
$GPVTG,,T,,M,0.01,N,0.03,K,A*21
$GPGSA,A,3,03,10,25,26,28,29,31,32,,,,,0.9,0.5,0.8*35
$GPGSA,A,3,66,67,76,77,78,,,,,,,,0.9,0.5,0.8*39
$GPGSA,A,3,07,21,27,29,30,,,,,,,,0.9,0.5,0.8*3F
$GPGSA,A,3,01,02,03,05,06,07,08,09,13,14,16,24,0.9,0.5,0.8*35
$GPGSA,A,3,25,26,33,38,39,42,59,60,,,,,0.9,0.5,0.8*38
$GPGST,084605.00,15.944,4.293,3.975,318.086,4.154,4.120,8.875*64
$GPGSV,3,1,11,28,67,013,43,29,18,096,40,10,15,176,38,03,25,314,36*75
$GPGSV,3,2,11,25,28,047,37,26,47,205,42,32,56,111,46,31,60,294,44*7E
$GPGSV,3,3,11,12,01,038,,01,03,277,,16,09,207,*4B
$GLGSV,2,1,07,77,71,250,38,65,19,143,33,78,14,224,39,67,47,330,38*6B
$GLGSV,2,2,07,76,52,028,43,66,69,126,41,68,01,325,*5D
$GAGSV,3,1,09,29,70,337,44,30,37,050,39,19,25,307,29,21,28,197,37*62
$GAGSV,3,2,09,07,47,104,41,27,68,133,44,12,06,303,,10,02,324,*6D
$GAGSV,3,3,09,33,07,253,28*58
$GBGSV,7,1,26,24,82,277,47,07,11,174,35,05,22,248,41,38,27,183,39*67
$GBGSV,7,2,26,04,23,121,33,25,25,238,38,50,27,150,,62,24,119,*60
$GBGSV,7,3,26,60,35,227,41,01,35,135,39,02,40,223,37,08,40,194,38*69
$GBGSV,7,4,26,59,38,139,42,26,43,048,43,13,46,206,41,03,46,183,41*61
$GBGSV,7,5,26,61,46,183,,09,59,279,42,42,53,158,44,33,64,300,47*63
$GBGSV,7,6,26,06,69,301,42,16,72,324,44,39,72,344,44,14,78,205,43*62
$GBGSV,7,7,26,21,05,146,33,10,05,183,31*66
$GPZDA,084606.00,11,09,2025,,*66
$GPRMC,084606.00,A,3801.0436348,N,11227.1317138,E,0.0,,110925,5.7,W,A*04
$GPGLL,3801.0436348,N,11227.1317138,E,084606.00,A,A*68
$GPGGA,084606.00,3801.0436348,N,11227.1317138,E,1,37,0.5,874.8863,M,-23.2601,M,,*4B
$GPVTG,,T,,M,0.02,N,0.04,K,A*25
$GPGSA,A,3,03,10,25,26,28,29,31,32,,,,,1.0,0.5,0.8*3D
$GPGSA,A,3,66,67,76,77,78,,,,,,,,1.0,0.5,0.8*31
$GPGSA,A,3,07,21,27,29,30,,,,,,,,1.0,0.5,0.8*37
$GPGSA,A,3,01,02,03,06,07,08,09,13,14,16,24,25,1.0,0.5,0.8*3F
$GPGSA,A,3,26,33,38,39,42,59,60,,,,,,1.0,0.5,0.8*37
$GPGST,084606.00,15.687,4.214,3.959,322.076,4.120,4.057,8.842*66
$GPGSV,3,1,11,28,67,013,43,29,18,096,40,10,15,176,38,03,25,314,36*75
$GPGSV,3,2,11,25,28,047,37,26,47,205,43,32,56,111,46,31,60,294,45*7E
$GPGSV,3,3,11,12,01,038,,01,03,277,,16,09,207,*4B
$GLGSV,2,1,07,77,71,250,38,65,19,143,34,78,14,224,39,67,47,330,39*6D
$GLGSV,2,2,07,76,52,028,43,66,69,126,41,68,01,325,*5D
$GAGSV,3,1,09,29,70,337,44,30,37,050,39,19,25,307,29,21,28,197,38*6D
$GAGSV,3,2,09,07,47,104,41,27,68,133,45,12,06,303,,10,02,324,*6C
$GAGSV,3,3,09,33,07,253,28*58
$GBGSV,7,1,26,24,82,277,47,07,11,174,36,05,22,248,34,38,27,183,40*68
$GBGSV,7,2,26,04,23,121,34,25,25,238,39,50,27,150,,62,24,119,*66
$GBGSV,7,3,26,60,35,227,41,01,35,135,40,02,40,223,38,08,40,194,39*69
$GBGSV,7,4,26,59,38,139,43,26,43,048,44,13,46,206,41,03,46,183,41*67
$GBGSV,7,5,26,61,46,183,,09,59,279,43,42,53,158,45,33,64,300,48*6C
$GBGSV,7,6,26,06,69,301,43,16,72,324,45,39,72,344,45,14,78,205,44*64
$GBGSV,7,7,26,21,05,146,33,10,05,183,32*65
$GPZDA,084607.00,11,09,2025,,*67
$GPRMC,084607.00,A,3801.0436582,N,11227.1317375,E,0.0,,110925,5.7,W,A*0E
$GPGLL,3801.0436582,N,11227.1317375,E,084607.00,A,A*62
$GPGGA,084607.00,3801.0436582,N,11227.1317375,E,1,37,0.5,874.8404,M,-23.2601,M,,*4C
$GPVTG,,T,,M,0.01,N,0.02,K,A*20
$GPGSA,A,3,03,10,25,26,28,29,31,32,,,,,1.0,0.5,0.8*3D
$GPGSA,A,3,66,67,76,77,78,,,,,,,,1.0,0.5,0.8*31
$GPGSA,A,3,07,21,27,29,30,,,,,,,,1.0,0.5,0.8*37
$GPGSA,A,3,01,02,03,06,07,08,09,13,14,16,24,25,1.0,0.5,0.8*3F
$GPGSA,A,3,26,33,38,39,42,59,60,,,,,,1.0,0.5,0.8*37
$GPGST,084607.00,15.076,4.004,3.704,313.241,3.848,3.866,8.331*6C
$GPGSV,3,1,11,28,67,013,43,29,18,096,40,10,15,176,38,03,25,313,36*72
$GPGSV,3,2,11,25,28,047,37,26,47,205,43,32,56,111,46,31,60,294,45*7E
$GPGSV,3,3,11,12,01,038,,01,03,277,,16,09,207,*4B
$GLGSV,2,1,07,77,71,250,38,65,19,143,34,78,14,224,39,67,47,330,38*6C
$GLGSV,2,2,07,76,52,028,43,66,69,126,41,68,01,325,*5D
$GAGSV,3,1,09,29,70,337,44,30,37,050,39,19,25,307,29,21,28,197,38*6D
$GAGSV,3,2,09,07,47,104,41,27,68,133,45,12,06,303,,10,02,324,*6C
$GAGSV,3,3,09,33,07,253,29*59
$GBGSV,7,1,26,24,82,277,48,07,11,174,37,05,22,248,34,38,27,183,41*67
$GBGSV,7,2,26,04,23,121,35,25,25,238,40,50,27,150,,62,24,119,*69
$GBGSV,7,3,26,60,35,227,42,01,35,135,41,02,40,223,39,08,40,194,40*64
$GBGSV,7,4,26,59,38,139,44,26,43,048,45,13,46,206,42,03,46,183,42*61
$GBGSV,7,5,26,61,46,183,,09,59,279,44,42,53,158,46,33,64,300,49*69
$GBGSV,7,6,26,06,69,301,44,16,72,324,46,39,72,344,46,14,78,205,45*62
$GBGSV,7,7,26,21,05,146,35,10,05,183,33*62
$GPZDA,084608.00,11,09,2025,,*68
$GPRMC,084608.00,A,3801.0436758,N,11227.1317472,E,0.0,,110925,5.7,W,A*04
$GPGLL,3801.0436758,N,11227.1317472,E,084608.00,A,A*68
$GPGGA,084608.00,3801.0436758,N,11227.1317472,E,1,37,0.5,874.8061,M,-23.2601,M,,*41
$GPVTG,,T,,M,0.04,N,0.07,K,A*20
$GPGSA,A,3,03,10,25,26,28,29,31,32,,,,,1.0,0.5,0.8*3D
$GPGSA,A,3,66,67,76,77,78,,,,,,,,1.0,0.5,0.8*31
$GPGSA,A,3,07,21,27,29,30,,,,,,,,1.0,0.5,0.8*37
$GPGSA,A,3,01,02,03,06,07,08,09,13,14,16,24,25,1.0,0.5,0.8*3F
$GPGSA,A,3,26,33,38,39,42,59,60,,,,,,1.0,0.5,0.8*37
$GPGST,084608.00,14.518,3.837,3.599,316.203,3.725,3.715,8.034*6C
$GPGSV,3,1,11,28,67,013,44,29,18,096,41,10,15,176,38,03,25,313,36*74
$GPGSV,3,2,11,25,28,047,38,26,47,205,43,32,56,111,47,31,60,294,45*70
$GPGSV,3,3,11,12,01,038,,01,03,277,,16,09,207,*4B
$GLGSV,2,1,07,77,71,250,38,65,19,143,34,78,14,224,39,67,47,330,38*6C
$GLGSV,2,2,07,76,52,028,43,66,69,126,41,68,01,325,*5D
$GAGSV,3,1,09,29,70,337,45,30,37,050,39,19,25,307,30,21,28,197,39*65
$GAGSV,3,2,09,07,47,104,42,27,68,133,45,12,06,303,,10,02,324,*6F
$GAGSV,3,3,09,33,07,253,29*59
$GBGSV,7,1,26,24,82,277,46,07,11,174,34,05,22,248,32,38,27,183,38*62
$GBGSV,7,2,26,04,23,121,33,25,25,238,38,50,27,150,,62,24,119,*60
$GBGSV,7,3,26,60,35,227,40,01,35,135,38,02,40,223,36,08,40,194,38*68
$GBGSV,7,4,26,59,38,139,42,26,43,048,43,13,46,206,40,03,46,183,40*61
$GBGSV,7,5,26,61,46,183,,09,59,279,41,42,53,158,44,33,64,300,46*61
$GBGSV,7,6,26,06,69,301,41,16,72,324,43,39,72,344,43,14,78,205,42*60
$GBGSV,7,7,26,21,05,146,32,10,05,183,30*66
$GPZDA,084609.00,11,09,2025,,*69
$GPRMC,084609.00,A,3801.0436897,N,11227.1317693,E,0.0,,110925,5.7,W,A*04
$GPGLL,3801.0436897,N,11227.1317693,E,084609.00,A,A*68
$GPGGA,084609.00,3801.0436897,N,11227.1317693,E,1,36,0.5,874.7686,M,-23.2601,M,,*40
$GPVTG,,T,,M,0.01,N,0.02,K,A*20
$GPGSA,A,3,03,10,25,26,28,29,31,32,,,,,1.0,0.5,0.8*3D
$GPGSA,A,3,66,67,76,77,78,,,,,,,,1.0,0.5,0.8*31
$GPGSA,A,3,07,21,27,29,30,,,,,,,,1.0,0.5,0.8*37
$GPGSA,A,3,01,02,03,06,08,09,13,14,16,24,25,26,1.0,0.5,0.8*3C
$GPGSA,A,3,33,38,39,42,59,60,,,,,,,1.0,0.5,0.8*33
$GPGST,084609.00,13.996,3.660,3.381,311.119,3.504,3.542,7.703*61
$GPGSV,3,1,11,28,67,013,44,29,18,096,41,10,15,176,39,03,25,313,37*74
$GPGSV,3,2,11,25,28,047,38,26,47,205,44,32,56,111,47,31,60,294,46*74
$GPGSV,3,3,11,12,01,038,,01,03,277,,16,09,207,*4B
$GLGSV,2,1,07,77,71,250,38,65,19,143,34,78,14,224,39,67,47,330,39*6D
$GLGSV,2,2,07,76,52,028,44,66,69,126,41,68,01,325,*5A
$GAGSV,3,1,09,29,70,337,45,30,37,050,40,19,25,307,30,21,28,197,39*6B
$GAGSV,3,2,09,07,47,104,42,27,68,133,46,12,06,303,,10,02,324,*6C
$GAGSV,3,3,09,33,07,253,29*59
$GBGSV,7,1,26,24,82,277,46,07,11,174,34,05,22,248,32,38,27,183,38*62
$GBGSV,7,2,26,04,23,121,33,25,25,238,37,50,27,150,,62,24,119,*6F
$GBGSV,7,3,26,60,35,227,40,01,35,135,38,02,40,223,36,08,40,194,38*68
$GBGSV,7,4,26,59,38,139,41,26,43,048,42,13,46,206,40,03,46,183,40*63
$GBGSV,7,5,26,61,46,183,,09,59,279,41,42,53,158,43,33,64,300,46*66
$GBGSV,7,6,26,06,69,301,41,16,72,324,43,39,72,344,43,14,78,205,42*60
$GBGSV,7,7,26,21,05,146,33,10,05,183,31*66
$GPZDA,084610.00,11,09,2025,,*61
$GPRMC,084610.00,A,3801.0436978,N,11227.1317849,E,0.0,,110925,5.7,W,A*05
$GPGLL,3801.0436978,N,11227.1317849,E,084610.00,A,A*69
$GPGGA,084610.00,3801.0436978,N,11227.1317849,E,1,36,0.5,874.7279,M,-23.2601,M,,*45
$GPVTG,,T,,M,0.01,N,0.02,K,A*20
$GPGSA,A,3,03,10,25,26,28,29,31,32,,,,,1.0,0.5,0.8*3D
$GPGSA,A,3,66,67,76,77,78,,,,,,,,1.0,0.5,0.8*31
$GPGSA,A,3,07,21,27,29,30,,,,,,,,1.0,0.5,0.8*37
$GPGSA,A,3,01,02,03,06,08,09,13,14,16,24,25,26,1.0,0.5,0.8*3C
$GPGSA,A,3,33,38,39,42,59,60,,,,,,,1.0,0.5,0.8*33
$GPGST,084610.00,13.732,3.445,3.258,316.556,3.358,3.348,7.339*6F
$GPGSV,3,1,11,28,67,013,44,29,18,096,42,10,15,176,39,03,25,313,37*77
$GPGSV,3,2,11,25,28,047,38,26,47,205,44,32,56,111,48,31,60,294,46*7B
$GPGSV,3,3,11,12,01,038,,01,03,277,,16,09,207,*4B
$GLGSV,2,1,07,77,71,250,39,65,19,143,34,78,14,224,39,67,47,330,39*6C
$GLGSV,2,2,07,76,52,028,44,66,69,126,41,68,01,325,*5A
$GAGSV,3,1,09,29,70,337,46,30,37,050,40,19,25,307,30,21,28,197,39*68
$GAGSV,3,2,09,07,47,104,42,27,68,133,46,12,06,303,,10,02,324,*6C
$GAGSV,3,3,09,33,07,253,29*59
$GBGSV,7,1,26,24,82,278,47,07,11,174,35,05,22,248,33,38,27,183,39*6D
$GBGSV,7,2,26,04,23,121,34,25,25,238,39,50,27,150,,62,24,119,*66
$GBGSV,7,3,26,60,35,227,41,01,35,135,39,02,40,223,37,08,40,194,39*68
$GBGSV,7,4,26,59,38,139,43,26,43,048,43,13,46,206,41,03,46,183,41*60
$GBGSV,7,5,26,61,46,183,,09,59,279,42,42,53,158,44,33,64,300,47*63
$GBGSV,7,6,26,06,69,301,42,16,72,324,44,39,72,344,44,14,78,205,43*62
$GBGSV,7,7,26,21,05,146,34,10,05,183,32*62
$GPZDA,084611.00,11,09,2025,,*60
$GPRMC,084611.00,A,3801.0437086,N,11227.1317986,E,0.0,,110925,5.7,W,A*0F
$GPGLL,3801.0437086,N,11227.1317986,E,084611.00,A,A*63
$GPGGA,084611.00,3801.0437086,N,11227.1317986,E,1,37,0.5,874.7043,M,-23.2601,M,,*45
$GPVTG,,T,,M,0.01,N,0.03,K,A*21
$GPGSA,A,3,03,10,25,26,28,29,31,32,,,,,1.0,0.5,0.8*3D
$GPGSA,A,3,66,67,76,77,78,,,,,,,,1.0,0.5,0.8*31
$GPGSA,A,3,07,21,27,29,30,,,,,,,,1.0,0.5,0.8*37
$GPGSA,A,3,01,02,03,06,07,08,09,13,14,16,24,25,1.0,0.5,0.8*3F
$GPGSA,A,3,26,33,38,39,42,59,60,,,,,,1.0,0.5,0.8*37
$GPGST,084611.00,13.729,3.447,3.209,313.855,3.325,3.335,7.243*65
$GPGSV,3,1,11,28,67,013,44,29,18,096,41,10,15,176,39,03,25,313,37*74
$GPGSV,3,2,11,25,28,047,38,26,47,205,44,32,56,111,47,31,60,294,46*74
$GPGSV,3,3,11,12,01,038,,01,03,277,,16,09,207,*4B
$GLGSV,2,1,07,77,71,250,38,65,19,143,34,78,14,224,38,67,47,330,39*6C
$GLGSV,2,2,07,76,52,028,44,66,69,126,41,68,01,325,*5A
$GAGSV,3,1,09,29,70,337,45,30,37,050,40,19,25,307,30,21,28,197,39*6B
$GAGSV,3,2,09,07,47,104,42,27,68,133,46,12,06,303,,10,02,324,*6C
$GAGSV,3,3,09,33,07,253,29*59
$GBGSV,7,1,26,24,82,278,47,07,11,174,35,05,22,248,33,38,27,183,39*6D
$GBGSV,7,2,26,04,23,121,34,25,25,238,38,50,27,150,,62,24,119,*67
$GBGSV,7,3,26,60,35,227,41,01,35,135,39,02,40,223,37,08,40,194,38*69
$GBGSV,7,4,26,59,38,139,42,26,43,048,43,13,46,206,41,03,46,183,41*61
$GBGSV,7,5,26,61,46,183,,09,59,279,42,42,53,158,44,33,64,300,47*63
$GBGSV,7,6,26,06,69,301,42,16,72,324,44,39,72,344,44,14,78,205,43*62
$GBGSV,7,7,26,21,05,146,34,10,05,183,31*61
$GPZDA,084612.00,11,09,2025,,*63
$GPRMC,084612.00,A,3801.0437192,N,11227.1318094,E,0.0,,110925,5.7,W,A*0D
$GPGLL,3801.0437192,N,11227.1318094,E,084612.00,A,A*61
$GPGGA,084612.00,3801.0437192,N,11227.1318094,E,1,37,0.5,874.6839,M,-23.2601,M,,*43
$GPVTG,,T,,M,0.02,N,0.03,K,A*22
$GPGSA,A,3,03,10,25,26,28,29,31,32,,,,,1.0,0.5,0.8*3D
$GPGSA,A,3,66,67,76,77,78,,,,,,,,1.0,0.5,0.8*31
$GPGSA,A,3,07,21,27,29,30,,,,,,,,1.0,0.5,0.8*37
$GPGSA,A,3,01,02,03,06,07,08,09,13,14,16,24,25,1.0,0.5,0.8*3F
$GPGSA,A,3,26,33,38,39,42,59,60,,,,,,1.0,0.5,0.8*37
$GPGST,084612.00,13.546,3.417,3.189,314.330,3.302,3.307,7.153*6A
$GPGSV,3,1,11,28,67,013,44,29,18,096,41,10,15,176,39,03,25,313,37*74
$GPGSV,3,2,11,25,28,047,38,26,47,205,44,32,56,111,47,31,60,294,45*77
$GPGSV,3,3,11,12,01,038,,01,03,277,,16,09,207,*4B
$GLGSV,2,1,07,77,71,250,38,65,19,143,34,78,14,224,38,67,47,330,39*6C
$GLGSV,2,2,07,76,52,028,44,66,69,126,41,68,01,325,*5A
$GAGSV,3,1,09,29,70,337,45,30,37,050,40,19,25,307,30,21,28,197,39*6B
$GAGSV,3,2,09,07,47,104,42,27,68,133,45,12,06,303,,10,02,324,*6F
$GAGSV,3,3,09,33,07,253,28*58
$GBGSV,7,1,26,24,82,278,47,07,11,174,35,05,22,248,33,38,27,183,39*6D
$GBGSV,7,2,26,04,23,121,33,25,25,238,38,50,27,150,,62,24,119,*60
$GBGSV,7,3,26,60,35,227,41,01,35,135,39,02,40,223,37,08,40,194,38*69
$GBGSV,7,4,26,59,38,139,42,26,43,048,43,13,46,206,41,03,46,183,41*61
$GBGSV,7,5,26,61,46,183,,09,59,279,42,42,53,158,44,33,64,300,47*63
$GBGSV,7,6,26,06,69,301,42,16,72,324,44,39,72,344,44,14,78,205,43*62
$GBGSV,7,7,26,21,05,146,34,10,05,183,31*61
$GPZDA,084613.00,11,09,2025,,*62
$GPRMC,084613.00,A,3801.0437299,N,11227.1318202,E,0.0,,110925,5.7,W,A*09
$GPGLL,3801.0437299,N,11227.1318202,E,084613.00,A,A*65
$GPGGA,084613.00,3801.0437299,N,11227.1318202,E,1,36,0.5,874.6538,M,-23.2601,M,,*4A
$GPVTG,,T,,M,0.01,N,0.02,K,A*20
$GPGSA,A,3,03,10,25,26,28,29,31,32,,,,,1.0,0.5,0.8*3D
$GPGSA,A,3,66,67,76,77,78,,,,,,,,1.0,0.5,0.8*31
$GPGSA,A,3,07,21,27,29,30,,,,,,,,1.0,0.5,0.8*37
$GPGSA,A,3,01,02,03,06,08,09,13,14,16,24,25,26,1.0,0.5,0.8*3C
$GPGSA,A,3,33,38,39,42,59,60,,,,,,,1.0,0.5,0.8*33
$GPGST,084613.00,13.295,3.473,3.181,311.353,3.312,3.349,7.228*6C
$GPGSV,3,1,11,28,67,013,44,29,18,096,41,10,15,176,39,03,25,313,37*74
$GPGSV,3,2,11,25,28,047,38,26,47,205,43,32,56,111,47,31,60,294,46*73
$GPGSV,3,3,11,12,01,038,,01,03,277,,16,09,207,*4B
$GLGSV,2,1,07,77,71,250,38,65,19,143,34,78,14,224,38,67,47,330,39*6C
$GLGSV,2,2,07,76,52,028,44,66,69,126,41,68,01,325,*5A
$GAGSV,3,1,09,29,70,337,45,30,37,050,40,19,25,307,30,21,28,197,39*6B
$GAGSV,3,2,09,07,47,104,42,27,68,133,46,12,06,303,,10,02,324,*6C
$GAGSV,3,3,09,33,07,253,29*59
$GBGSV,7,1,26,24,82,278,46,07,11,174,34,05,22,248,32,38,27,183,39*6C
$GBGSV,7,2,26,04,23,121,33,25,25,238,38,50,27,150,,62,24,119,*60
$GBGSV,7,3,26,60,35,227,40,01,35,135,39,02,40,223,37,08,40,194,38*68
$GBGSV,7,4,26,59,38,139,42,26,43,048,43,13,46,206,40,03,46,183,40*61
$GBGSV,7,5,26,61,46,183,,09,59,279,42,42,53,158,44,33,64,300,47*63
$GBGSV,7,6,26,06,69,301,42,16,72,324,44,39,72,344,44,14,78,205,43*62
$GBGSV,7,7,26,21,05,146,33,10,05,183,31*66
$GPZDA,084614.00,11,09,2025,,*65
$GPRMC,084614.00,A,3801.0437364,N,11227.1318299,E,0.0,,110925,5.7,W,A*0F
$GPGLL,3801.0437364,N,11227.1318299,E,084614.00,A,A*63
$GPGGA,084614.00,3801.0437364,N,11227.1318299,E,1,36,0.5,874.6191,M,-23.2601,M,,*4B
$GPVTG,,T,,M,0.02,N,0.03,K,A*22
$GPGSA,A,3,03,10,25,26,28,29,31,32,,,,,1.0,0.5,0.8*3D
$GPGSA,A,3,66,67,76,77,78,,,,,,,,1.0,0.5,0.8*31
$GPGSA,A,3,07,21,27,29,30,,,,,,,,1.0,0.5,0.8*37
$GPGSA,A,3,01,02,03,06,08,09,13,14,16,24,25,26,1.0,0.5,0.8*3C
$GPGSA,A,3,33,38,39,42,59,60,,,,,,,1.0,0.5,0.8*33
$GPGST,084614.00,13.272,3.306,3.081,313.774,3.190,3.200,6.987*6E
$GPGSV,3,1,11,28,67,013,44,29,18,096,41,10,15,176,39,03,25,313,37*74
$GPGSV,3,2,11,25,28,047,38,26,47,205,44,32,56,111,47,31,60,294,46*74
$GPGSV,3,3,11,12,01,038,,01,03,277,,16,09,207,*4B
$GLGSV,2,1,07,77,71,250,38,65,19,143,34,78,14,224,39,67,47,330,38*6C
$GLGSV,2,2,07,76,52,028,44,66,69,126,41,68,01,325,*5A
$GAGSV,3,1,09,29,70,337,46,30,37,050,40,19,25,307,30,21,28,197,39*68
$GAGSV,3,2,09,07,47,104,42,27,68,133,46,12,06,303,,10,02,324,*6C
$GAGSV,3,3,09,33,07,253,29*59
$GBGSV,7,1,26,24,82,278,46,07,11,174,34,05,22,248,32,38,27,183,38*6D
$GBGSV,7,2,26,04,23,121,33,25,25,238,37,50,27,150,,62,24,119,*6F
$GBGSV,7,3,26,60,35,227,40,01,35,135,38,02,40,223,36,08,40,194,37*67
$GBGSV,7,4,26,59,38,139,41,26,43,048,42,13,46,206,40,03,46,183,40*63
$GBGSV,7,5,26,61,46,183,,09,59,279,41,42,53,158,43,33,64,300,46*66
$GBGSV,7,6,26,06,69,301,41,16,72,324,43,39,72,344,43,14,78,205,42*60
$GBGSV,7,7,26,21,05,146,33,10,05,183,31*66
$GPZDA,084615.00,11,09,2025,,*64
$GPRMC,084615.00,A,3801.0437470,N,11227.1318403,E,0.0,,110925,5.7,W,A*09
$GPGLL,3801.0437470,N,11227.1318403,E,084615.00,A,A*65
$GPGGA,084615.00,3801.0437470,N,11227.1318403,E,1,37,0.5,874.5953,M,-23.2601,M,,*49
$GPVTG,,T,,M,0.02,N,0.04,K,A*25
$GPGSA,A,3,03,10,25,26,28,29,31,32,,,,,1.0,0.5,0.8*3D
$GPGSA,A,3,66,67,76,77,78,,,,,,,,1.0,0.5,0.8*31
$GPGSA,A,3,07,21,27,29,30,,,,,,,,1.0,0.5,0.8*37
$GPGSA,A,3,01,02,03,06,08,09,13,14,16,24,25,26,1.0,0.5,0.8*3C
$GPGSA,A,3,33,38,39,40,42,59,60,,,,,,1.0,0.5,0.8*37
$GPGST,084615.00,14.203,3.431,3.233,316.537,3.339,3.328,7.231*6B
$GPGSV,3,1,11,28,67,013,43,29,18,096,41,10,15,176,38,03,25,313,37*72
$GPGSV,3,2,11,25,28,047,38,26,47,205,43,32,56,111,47,31,60,294,45*70
$GPGSV,3,3,11,12,01,038,,01,03,277,,16,09,207,*4B
$GLGSV,2,1,07,77,71,250,39,65,19,143,34,78,14,224,39,67,47,330,39*6C
$GLGSV,2,2,07,76,52,028,44,66,69,126,41,68,01,325,*5A
$GAGSV,3,1,09,29,70,337,45,30,37,050,39,19,25,307,30,21,28,197,38*64
$GAGSV,3,2,09,07,47,104,41,27,68,133,45,12,06,303,,10,02,324,*6C
$GAGSV,3,3,09,33,07,253,28*58
$GBGSV,7,1,26,24,82,278,46,07,11,174,34,05,22,248,32,38,27,183,38*6D
$GBGSV,7,2,26,04,23,121,33,25,25,238,37,50,27,150,,62,24,119,*6F
$GBGSV,7,3,26,60,35,227,40,01,35,135,38,02,40,223,36,08,40,194,37*67
$GBGSV,7,4,26,59,38,139,41,26,43,048,42,13,46,206,40,03,46,183,40*63
$GBGSV,7,5,26,61,46,183,,09,59,279,41,42,53,158,44,33,64,300,46*61
$GBGSV,7,6,26,06,69,301,41,16,72,324,43,39,72,344,43,14,78,205,42*60
$GBGSV,7,7,26,21,05,146,33,10,05,183,30*67
$GPZDA,084616.00,11,09,2025,,*67
$GPRMC,084616.00,A,3801.0437568,N,11227.1318421,E,0.0,,110925,5.7,W,A*02
$GPGLL,3801.0437568,N,11227.1318421,E,084616.00,A,A*6E
$GPGGA,084616.00,3801.0437568,N,11227.1318421,E,1,37,0.5,874.5921,M,-23.2601,M,,*47
$GPVTG,,T,,M,0.01,N,0.02,K,A*20
$GPGSA,A,3,03,10,25,26,28,29,31,32,,,,,1.0,0.5,0.8*3D
$GPGSA,A,3,66,67,76,77,78,,,,,,,,1.0,0.5,0.8*31
$GPGSA,A,3,07,21,27,29,30,,,,,,,,1.0,0.5,0.8*37
$GPGSA,A,3,01,02,03,06,08,09,13,14,16,24,25,26,1.0,0.5,0.8*3C
$GPGSA,A,3,33,38,39,40,42,59,60,,,,,,1.0,0.5,0.8*37
$GPGST,084616.00,14.163,3.697,3.415,318.496,3.576,3.541,7.683*6C
$GPGSV,3,1,11,28,67,013,43,29,18,096,41,10,15,176,38,03,25,313,37*72
$GPGSV,3,2,11,25,28,047,38,26,47,205,43,32,56,112,47,31,60,294,45*73
$GPGSV,3,3,11,12,01,038,,01,03,277,,16,09,207,*4B
$GLGSV,2,1,07,77,71,250,38,65,19,143,34,78,14,224,39,67,47,330,38*6C
$GLGSV,2,2,07,76,52,028,43,66,69,126,41,68,01,325,*5D
$GAGSV,3,1,09,29,70,337,45,30,37,050,39,19,25,307,30,21,28,197,38*64
$GAGSV,3,2,09,07,47,105,41,27,68,133,45,12,06,303,,10,02,324,*6D
$GAGSV,3,3,09,33,07,253,28*58
$GBGSV,7,1,27,24,82,278,45,07,11,174,33,05,22,248,31,38,27,183,37*64
$GBGSV,7,2,27,04,23,121,32,25,25,238,36,50,27,150,,62,24,119,*6E
$GBGSV,7,3,27,60,35,227,39,01,35,135,37,02,40,223,35,08,40,194,37*64
$GBGSV,7,4,27,59,38,139,40,26,43,048,41,13,46,206,39,03,46,183,39*60
$GBGSV,7,5,27,61,46,183,,09,59,279,40,42,53,158,42,33,64,300,45*64
$GBGSV,7,6,27,06,69,301,40,16,72,324,42,39,72,344,42,14,78,205,41*63
$GBGSV,7,7,27,10,05,183,29,21,05,146,32,40,07,161,36*5F
$GPZDA,084617.00,11,09,2025,,*66
$GPRMC,084617.00,A,3801.0437688,N,11227.1318513,E,0.0,,110925,5.7,W,A*0E
$GPGLL,3801.0437688,N,11227.1318513,E,084617.00,A,A*62
$GPGGA,084617.00,3801.0437688,N,11227.1318513,E,1,36,0.5,874.5777,M,-23.2601,M,,*47
$GPVTG,,T,,M,0.00,N,0.01,K,A*22
$GPGSA,A,3,03,10,25,26,28,29,31,32,,,,,1.0,0.5,0.8*3D
$GPGSA,A,3,66,67,76,77,78,,,,,,,,1.0,0.5,0.8*31
$GPGSA,A,3,07,21,27,29,30,,,,,,,,1.0,0.5,0.8*37
$GPGSA,A,3,01,03,06,08,09,13,14,16,24,25,26,33,1.0,0.5,0.8*3E
$GPGSA,A,3,38,39,40,42,59,60,,,,,,,1.0,0.5,0.8*37
$GPGST,084617.00,14.267,3.591,3.349,309.187,3.448,3.496,7.476*6B
$GPGSV,3,1,11,28,67,013,43,29,18,096,40,10,15,176,38,03,25,313,36*72
$GPGSV,3,2,11,25,28,047,37,26,47,205,42,32,56,112,46,31,60,294,45*7C
$GPGSV,3,3,11,12,01,038,,01,03,277,,16,09,207,*4B
$GLGSV,2,1,07,77,71,250,39,65,19,143,34,78,14,224,39,67,47,330,39*6C
$GLGSV,2,2,07,76,52,028,44,66,69,126,41,68,01,325,*5A
$GAGSV,3,1,09,29,70,337,44,30,37,050,39,19,25,307,29,21,28,197,38*6D
$GAGSV,3,2,09,07,47,105,41,27,68,133,45,12,06,303,,10,02,324,*6D
$GAGSV,3,3,09,33,07,253,27*57
$GBGSV,7,1,27,24,82,278,46,07,11,174,34,05,22,248,32,38,27,183,39*6D
$GBGSV,7,2,27,04,23,121,33,25,25,238,38,50,27,150,,62,24,119,*61
$GBGSV,7,3,27,60,35,227,40,01,35,135,39,02,40,223,36,08,40,194,38*68
$GBGSV,7,4,27,59,38,139,42,26,43,048,43,13,46,206,40,03,46,183,40*60
$GBGSV,7,5,27,61,46,183,,09,59,279,42,42,53,158,44,33,64,300,47*62
$GBGSV,7,6,27,06,69,301,42,16,72,324,44,39,72,344,44,14,78,205,43*63
$GBGSV,7,7,27,10,05,183,31,21,05,146,34,40,07,161,38*5E
$GPZDA,084618.00,11,09,2025,,*69
$GPRMC,084618.00,A,3801.0437815,N,11227.1318583,E,0.1,,110925,5.7,W,A*03
$GPGLL,3801.0437815,N,11227.1318583,E,084618.00,A,A*6E
$GPGGA,084618.00,3801.0437815,N,11227.1318583,E,1,38,0.5,874.5744,M,-23.2601,M,,*45
$GPVTG,,T,,M,0.06,N,0.10,K,A*24
$GPGSA,A,3,03,10,25,26,28,29,31,32,,,,,0.9,0.5,0.8*35
$GPGSA,A,3,66,67,76,77,78,,,,,,,,0.9,0.5,0.8*39
$GPGSA,A,3,07,21,27,29,30,,,,,,,,0.9,0.5,0.8*3F
$GPGSA,A,3,01,02,03,06,07,08,09,13,14,16,24,25,0.9,0.5,0.8*37
$GPGSA,A,3,26,33,38,39,40,42,59,60,,,,,0.9,0.5,0.8*3B
$GPGST,084618.00,14.178,3.723,3.493,318.300,3.623,3.597,7.741*67
$GPGSV,3,1,11,28,67,013,43,29,18,096,40,10,15,176,38,03,25,313,36*72
$GPGSV,3,2,11,25,28,047,37,26,47,205,42,32,56,112,46,31,60,294,44*7D
$GPGSV,3,3,11,12,01,038,,01,03,277,,16,09,207,*4B
$GLGSV,2,1,07,77,71,250,39,65,19,143,34,78,14,224,39,67,47,330,37*62
$GLGSV,2,2,07,76,52,028,44,66,69,126,42,68,01,325,*59
$GAGSV,3,1,09,29,70,337,44,30,37,050,39,19,25,307,29,21,28,197,38*6D
$GAGSV,3,2,09,07,47,105,41,27,68,133,44,12,06,303,,10,02,324,*6C
$GAGSV,3,3,09,33,07,253,27*57
$GBGSV,7,1,27,24,82,278,46,07,11,174,35,05,22,248,32,38,27,183,39*6C
$GBGSV,7,2,27,04,23,121,34,25,25,238,38,50,27,150,,62,24,119,*66
$GBGSV,7,3,27,60,35,227,40,01,35,135,39,02,40,223,37,08,40,194,38*69
$GBGSV,7,4,27,59,38,139,42,26,43,048,43,13,46,206,40,03,46,183,40*60
$GBGSV,7,5,27,61,46,183,,09,59,279,42,42,53,158,44,33,64,300,46*63
$GBGSV,7,6,27,06,69,301,42,16,72,324,44,39,72,344,44,14,78,205,43*63
$GBGSV,7,7,27,10,05,183,31,21,05,146,34,40,07,161,38*5E
$GPZDA,084619.00,11,09,2025,,*68
$GPRMC,084619.00,A,3801.0438142,N,11227.1318886,E,0.0,,110925,5.7,W,A*0F
$GPGLL,3801.0438142,N,11227.1318886,E,084619.00,A,A*63
$GPGGA,084619.00,3801.0438142,N,11227.1318886,E,1,37,0.5,874.5805,M,-23.2601,M,,*4D
$GPVTG,,T,,M,0.02,N,0.03,K,A*22
$GPGSA,A,3,03,10,25,26,28,29,31,32,,,,,1.0,0.5,0.8*3D
$GPGSA,A,3,66,67,76,77,78,,,,,,,,1.0,0.5,0.8*31
$GPGSA,A,3,07,21,27,29,30,,,,,,,,1.0,0.5,0.8*37
$GPGSA,A,3,01,02,03,06,08,09,13,14,16,24,25,26,1.0,0.5,0.8*3C
$GPGSA,A,3,33,38,39,40,42,59,60,,,,,,1.0,0.5,0.8*37
$GPGST,084619.00,14.069,3.760,3.464,314.317,3.611,3.618,7.820*6F
$GPGSV,3,1,11,28,67,013,43,29,18,096,40,10,15,176,38,03,25,313,36*72
$GPGSV,3,2,11,25,28,047,37,26,47,205,42,32,56,112,46,31,60,294,44*7D
$GPGSV,3,3,11,12,01,038,,01,03,277,,16,09,207,*4B
$GLGSV,2,1,07,77,71,250,38,65,19,143,33,78,14,224,39,67,47,330,37*64
$GLGSV,2,2,07,76,52,028,43,66,69,126,41,68,01,325,*5D
$GAGSV,3,1,09,29,70,337,44,30,37,050,39,19,25,307,29,21,28,197,38*6D
$GAGSV,3,2,09,07,46,105,41,27,68,133,44,12,06,303,,10,02,324,*6D
$GAGSV,3,3,09,33,07,253,27*57
$GBGSV,7,1,27,24,82,278,46,07,11,174,34,05,22,248,32,38,27,183,38*6C
$GBGSV,7,2,27,04,23,121,32,25,25,238,37,50,27,150,,62,24,119,*6F
$GBGSV,7,3,27,60,35,227,39,01,35,135,38,02,40,223,36,08,40,194,37*68
$GBGSV,7,4,27,59,38,139,41,26,43,048,42,13,46,206,40,03,46,183,39*6C
$GBGSV,7,5,27,61,46,183,,09,59,279,41,42,53,158,43,33,64,300,46*67
$GBGSV,7,6,27,06,69,301,41,16,72,324,43,39,72,345,43,14,78,205,42*60
$GBGSV,7,7,27,10,05,183,30,21,05,146,34,40,07,161,37*50
$GPZDA,084620.00,11,09,2025,,*62
$GPRMC,084620.00,A,3801.0438685,N,11227.1319475,E,0.0,,110925,5.7,W,A*08
$GPGLL,3801.0438685,N,11227.1319475,E,084620.00,A,A*64
$GPGGA,084620.00,3801.0438685,N,11227.1319475,E,1,36,0.5,874.5605,M,-23.2601,M,,*45
$GPVTG,,T,,M,0.02,N,0.04,K,A*25
$GPGSA,A,3,03,10,25,26,28,29,31,32,,,,,1.0,0.5,0.8*3D
$GPGSA,A,3,66,67,76,77,78,,,,,,,,1.0,0.5,0.8*31
$GPGSA,A,3,07,21,27,29,30,,,,,,,,1.0,0.5,0.8*37
$GPGSA,A,3,01,03,06,08,09,13,14,16,24,25,26,33,1.0,0.5,0.8*3E
$GPGSA,A,3,38,39,40,42,59,60,,,,,,,1.0,0.5,0.8*37
$GPGST,084620.00,14.080,3.521,3.307,316.697,3.422,3.409,7.367*60
$GPGSV,3,1,11,28,67,013,44,29,18,096,41,10,15,176,39,03,25,313,37*74
$GPGSV,3,2,11,25,28,047,38,26,47,205,43,32,56,112,47,31,60,294,46*70
$GPGSV,3,3,11,12,01,038,,01,03,277,,16,09,207,*4B
$GLGSV,2,1,07,77,71,250,39,65,19,143,34,78,14,224,38,67,47,330,38*6C
$GLGSV,2,2,07,76,52,028,44,66,69,126,41,68,01,325,*5A
$GAGSV,3,1,09,29,70,337,45,30,37,050,40,19,25,307,30,21,28,197,38*6A
$GAGSV,3,2,09,07,46,105,42,27,68,133,45,12,06,303,,10,02,324,*6F
$GAGSV,3,3,09,33,07,253,28*58
$GBGSV,7,1,27,24,82,278,45,07,11,174,34,05,22,248,31,38,27,183,38*6C
$GBGSV,7,2,27,04,23,121,32,25,25,238,37,50,27,150,,62,24,119,*6F
$GBGSV,7,3,27,60,35,227,39,01,35,135,37,02,40,223,35,08,40,194,37*64
$GBGSV,7,4,27,59,38,139,41,26,43,048,42,13,46,206,39,03,46,183,39*62
$GBGSV,7,5,27,61,46,183,,09,59,279,40,42,53,158,43,33,64,300,46*66
$GBGSV,7,6,27,06,69,301,41,16,72,324,43,39,72,345,43,14,78,205,42*60
$GBGSV,7,7,27,10,05,183,30,21,05,146,33,40,07,161,37*57
$GPZDA,084621.00,11,09,2025,,*63
$GPRMC,084621.00,A,3801.0439168,N,11227.1319975,E,0.0,,110925,5.7,W,A*01
$GPGLL,3801.0439168,N,11227.1319975,E,084621.00,A,A*6D
$GPGGA,084621.00,3801.0439168,N,11227.1319975,E,1,37,0.5,874.5569,M,-23.2601,M,,*44
$GPVTG,,T,,M,0.02,N,0.03,K,A*22
$GPGSA,A,3,03,10,25,26,28,29,31,32,,,,,1.0,0.5,0.8*3D
$GPGSA,A,3,66,67,76,77,78,,,,,,,,1.0,0.5,0.8*31
$GPGSA,A,3,07,21,27,29,30,,,,,,,,1.0,0.5,0.8*37
$GPGSA,A,3,01,02,03,06,08,09,13,14,16,24,25,26,1.0,0.5,0.8*3C
$GPGSA,A,3,33,38,39,40,42,59,60,,,,,,1.0,0.5,0.8*37
$GPGST,084621.00,13.970,3.568,3.309,311.949,3.427,3.455,7.424*64
$GPGSV,3,1,11,28,67,013,44,29,18,096,41,10,15,176,39,03,25,313,37*74
$GPGSV,3,2,11,25,28,047,38,26,47,205,43,32,56,112,47,31,60,294,45*73
$GPGSV,3,3,11,12,01,038,,01,03,277,,16,09,207,*4B
$GLGSV,2,1,07,77,71,250,38,65,19,143,34,78,14,224,38,67,47,330,38*6D
$GLGSV,2,2,07,76,52,028,43,66,69,126,41,68,01,325,*5D
$GAGSV,3,1,09,29,70,337,45,30,37,050,39,19,25,307,30,21,28,197,38*64
$GAGSV,3,2,09,07,46,105,42,27,68,133,45,12,06,303,,10,02,324,*6F
$GAGSV,3,3,09,33,07,253,28*58
$GBGSV,7,1,27,24,82,278,44,07,11,174,32,05,22,248,30,38,27,183,37*65
$GBGSV,7,2,27,04,23,121,31,25,25,238,35,50,27,150,,62,24,119,*6E
$GBGSV,7,3,27,60,35,227,38,01,35,135,36,02,40,223,34,08,40,194,36*64
$GBGSV,7,4,27,59,38,139,40,26,43,048,40,13,46,206,38,03,46,183,38*61
$GBGSV,7,5,27,61,46,183,,09,59,279,39,42,53,158,41,33,64,300,44*68
$GBGSV,7,6,27,06,69,301,39,16,72,324,41,39,72,345,41,14,78,205,40*6D
$GBGSV,7,7,27,10,05,183,29,21,05,146,32,40,07,161,35*5C
$GPZDA,084622.00,11,09,2025,,*60
$GPRMC,084622.00,A,3801.0439318,N,11227.1320403,E,0.0,,110925,5.7,W,A*01
$GPGLL,3801.0439318,N,11227.1320403,E,084622.00,A,A*6D
$GPGGA,084622.00,3801.0439318,N,11227.1320403,E,1,33,0.6,874.5223,M,-23.2601,M,,*4A
$GPVTG,,T,,M,0.04,N,0.07,K,A*20
$GPGSA,A,3,03,10,25,26,28,29,31,32,,,,,1.0,0.6,0.9*3F
$GPGSA,A,3,66,67,76,77,78,,,,,,,,1.0,0.6,0.9*33
$GPGSA,A,3,07,21,27,29,30,,,,,,,,1.0,0.6,0.9*35
$GPGSA,A,3,01,03,06,09,13,14,16,24,26,33,38,39,1.0,0.6,0.9*32
$GPGSA,A,3,42,59,60,,,,,,,,,,1.0,0.6,0.9*30
$GPGST,084622.00,12.636,3.395,3.113,312.175,3.243,3.271,7.134*62
$GPGSV,3,1,11,28,67,014,43,29,18,096,40,10,15,176,38,03,25,313,36*75
$GPGSV,3,2,11,25,28,047,37,26,47,205,42,32,56,112,46,31,60,294,44*7D
$GPGSV,3,3,11,12,01,038,,01,03,277,,16,09,207,*4B
$GLGSV,2,1,07,77,71,250,36,65,19,143,31,78,14,224,39,67,47,330,36*69
$GLGSV,2,2,07,76,52,028,41,66,69,126,38,68,01,325,*51
$GAGSV,3,1,09,29,70,337,44,30,37,050,38,19,25,307,29,21,28,197,37*63
$GAGSV,3,2,09,07,46,105,40,27,68,133,44,12,06,303,,10,02,324,*6C
$GAGSV,3,3,09,33,07,253,27*57
$GBGSV,7,1,27,24,82,278,44,07,11,174,32,05,22,248,30,38,27,183,36*64
$GBGSV,7,2,27,04,23,121,31,25,25,238,36,50,27,150,,62,24,119,*6D
$GBGSV,7,3,27,60,35,227,38,01,35,135,36,02,40,223,34,08,40,194,36*64
$GBGSV,7,4,27,59,38,139,40,26,43,048,41,13,46,206,38,03,46,183,38*60
$GBGSV,7,5,27,61,46,183,,09,59,279,39,42,53,158,42,33,64,300,44*6B
$GBGSV,7,6,27,06,69,301,39,16,72,324,42,39,72,345,42,14,78,205,40*6D
$GBGSV,7,7,27,10,05,183,29,21,05,146,32,40,07,161,35*5C
$GPZDA,084623.00,11,09,2025,,*61
$GPRMC,084623.00,A,3801.0439523,N,11227.1320766,E,0.0,,110925,5.7,W,A*0E
$GPGLL,3801.0439523,N,11227.1320766,E,084623.00,A,A*62
$GPGGA,084623.00,3801.0439523,N,11227.1320766,E,1,37,0.5,874.5119,M,-23.2601,M,,*48
$GPVTG,,T,,M,0.02,N,0.03,K,A*22
$GPGSA,A,3,03,10,25,26,28,29,31,32,,,,,1.0,0.5,0.8*3D
$GPGSA,A,3,66,67,76,77,78,,,,,,,,1.0,0.5,0.8*31
$GPGSA,A,3,07,21,27,29,30,,,,,,,,1.0,0.5,0.8*37
$GPGSA,A,3,01,02,03,06,08,09,13,14,16,24,25,26,1.0,0.5,0.8*3C
$GPGSA,A,3,33,38,39,40,42,59,60,,,,,,1.0,0.5,0.8*37
$GPGST,084623.00,13.218,3.602,3.294,315.441,3.454,3.449,7.476*66
$GPGSV,3,1,11,28,67,014,43,29,18,096,40,10,15,176,38,03,25,313,35*76
$GPGSV,3,2,11,25,28,047,37,26,47,205,42,32,56,112,46,31,60,294,44*7D
$GPGSV,3,3,11,12,01,038,,01,03,277,,16,09,207,*4B
$GLGSV,2,1,07,77,71,250,35,65,19,143,31,78,14,224,39,67,47,330,36*6A
$GLGSV,2,2,07,76,52,028,41,66,69,126,38,68,01,325,*51
$GAGSV,3,1,09,29,70,337,44,30,37,050,38,19,25,307,29,21,28,197,37*63
$GAGSV,3,2,09,07,46,105,40,27,68,133,44,12,06,303,,10,02,324,*6C
$GAGSV,3,3,09,33,07,253,27*57
$GBGSV,7,1,27,24,82,278,44,07,11,174,32,05,22,248,30,38,27,183,37*65
$GBGSV,7,2,27,04,23,121,31,25,25,238,35,50,27,150,,62,24,119,*6E
$GBGSV,7,3,27,60,35,227,38,01,35,135,36,02,40,223,34,08,40,194,36*64
$GBGSV,7,4,27,59,38,139,40,26,43,048,41,13,46,206,38,03,46,183,38*60
$GBGSV,7,5,27,61,46,183,,09,59,279,39,42,53,158,42,33,64,300,44*6B
$GBGSV,7,6,27,06,69,301,40,16,72,324,42,39,72,345,41,14,78,205,41*61
$GBGSV,7,7,27,10,05,183,29,21,05,146,33,40,07,161,35*5D
$GPZDA,084624.00,11,09,2025,,*66
$GPRMC,084624.00,A,3801.0439811,N,11227.1321083,E,0.0,,110925,5.7,W,A*08
$GPGLL,3801.0439811,N,11227.1321083,E,084624.00,A,A*64
$GPGGA,084624.00,3801.0439811,N,11227.1321083,E,1,36,0.5,874.5032,M,-23.2601,M,,*47
$GPVTG,,T,,M,0.01,N,0.03,K,A*21
$GPGSA,A,3,03,10,25,26,28,29,31,32,,,,,1.0,0.5,0.8*3D
$GPGSA,A,3,66,67,76,77,78,,,,,,,,1.0,0.5,0.8*31
$GPGSA,A,3,07,21,27,29,30,,,,,,,,1.0,0.5,0.8*37
$GPGSA,A,3,01,03,06,08,09,13,14,16,24,25,26,33,1.0,0.5,0.8*3E
$GPGSA,A,3,38,39,40,42,59,60,,,,,,,1.0,0.5,0.8*37
$GPGST,084624.00,12.679,3.248,3.003,314.643,3.126,3.129,6.749*69
$GPGSV,3,1,11,28,67,014,43,29,18,096,40,10,15,176,38,03,25,313,36*75
$GPGSV,3,2,11,25,28,047,37,26,47,205,42,32,56,112,46,31,60,294,44*7D
$GPGSV,3,3,11,12,01,038,,01,03,277,,16,09,207,*4B
$GLGSV,2,1,07,77,71,250,36,65,19,143,31,78,14,224,39,67,47,330,37*68
$GLGSV,2,2,07,76,52,028,41,66,69,126,39,68,01,325,*50
$GAGSV,3,1,09,29,70,337,44,30,37,050,38,19,25,307,29,21,28,197,38*6C
$GAGSV,3,2,09,07,46,105,41,27,68,133,44,12,06,303,,10,02,324,*6D
$GAGSV,3,3,09,33,07,253,27*57
$GBGSV,7,1,27,24,82,278,44,07,11,174,33,05,22,248,31,38,27,183,37*65
$GBGSV,7,2,27,04,23,121,31,25,25,238,36,50,27,150,,62,24,119,*6D
$GBGSV,7,3,27,60,35,227,38,01,35,135,37,02,40,223,34,08,40,194,36*65
$GBGSV,7,4,27,59,38,139,40,26,43,048,41,13,46,206,38,03,46,183,38*60
$GBGSV,7,5,27,61,46,183,,09,59,279,40,42,53,158,42,33,64,300,44*65
$GBGSV,7,6,27,06,69,301,40,16,72,324,42,39,72,345,42,14,78,205,41*62
$GBGSV,7,7,27,10,05,183,29,21,05,146,33,40,07,161,36*5E
$GPZDA,084625.00,11,09,2025,,*67
$GPRMC,084625.00,A,3801.0440001,N,11227.1321263,E,0.0,,110925,5.7,W,A*02
$GPGLL,3801.0440001,N,11227.1321263,E,084625.00,A,A*6E
$GPGGA,084625.00,3801.0440001,N,11227.1321263,E,1,37,0.5,874.4985,M,-23.2601,M,,*48
$GPVTG,,T,,M,0.00,N,0.01,K,A*22
$GPGSA,A,3,03,10,25,26,28,29,31,32,,,,,1.0,0.5,0.8*3D
$GPGSA,A,3,66,67,76,77,78,,,,,,,,1.0,0.5,0.8*31
$GPGSA,A,3,07,21,27,29,30,,,,,,,,1.0,0.5,0.8*37
$GPGSA,A,3,01,02,03,06,08,09,13,14,16,24,25,26,1.0,0.5,0.8*3C
$GPGSA,A,3,33,38,39,40,42,59,60,,,,,,1.0,0.5,0.8*37
$GPGST,084625.00,11.862,2.942,2.750,314.166,2.845,2.850,6.149*62
$GPGSV,3,1,11,28,67,014,43,29,18,096,41,10,15,176,38,03,25,313,36*74
$GPGSV,3,2,11,25,28,047,37,26,47,205,42,32,56,112,46,31,60,294,45*7C
$GPGSV,3,3,11,12,01,038,,01,03,277,,16,09,207,*4B
$GLGSV,2,1,07,77,71,250,36,65,19,143,31,78,14,224,39,67,47,330,37*68
$GLGSV,2,2,07,76,52,028,41,66,69,126,38,68,01,325,*51
$GAGSV,3,1,09,29,70,337,44,30,37,050,38,19,25,307,29,21,28,197,38*6C
$GAGSV,3,2,09,07,46,105,41,27,68,133,44,12,06,303,,10,02,324,*6D
$GAGSV,3,3,09,33,07,253,27*57
$GBGSV,7,1,27,24,82,278,45,07,11,174,33,05,22,248,30,38,27,183,37*65
$GBGSV,7,2,27,04,23,121,32,25,25,238,36,50,27,150,,62,24,119,*6E
$GBGSV,7,3,27,60,35,227,39,01,35,135,37,02,40,223,35,08,40,194,37*64
$GBGSV,7,4,27,59,38,139,41,26,43,048,41,13,46,206,39,03,46,183,39*61
$GBGSV,7,5,27,61,46,183,,09,59,279,40,42,53,158,42,33,64,299,45*65
$GBGSV,7,6,27,06,69,301,40,16,72,324,42,39,72,345,42,14,78,205,41*62
$GBGSV,7,7,27,10,05,183,29,21,05,146,33,40,07,161,36*5E
$GPZDA,084626.00,11,09,2025,,*64
$GPRMC,084626.00,A,3801.0440177,N,11227.1321439,E,0.0,,110925,5.7,W,A*08
$GPGLL,3801.0440177,N,11227.1321439,E,084626.00,A,A*64
$GPGGA,084626.00,3801.0440177,N,11227.1321439,E,1,37,0.5,874.5018,M,-23.2601,M,,*4E
$GPVTG,,T,,M,0.02,N,0.03,K,A*22
$GPGSA,A,3,03,10,25,26,28,29,31,32,,,,,1.0,0.5,0.8*3D
$GPGSA,A,3,66,67,76,77,78,,,,,,,,1.0,0.5,0.8*31
$GPGSA,A,3,07,21,27,29,30,,,,,,,,1.0,0.5,0.8*37
$GPGSA,A,3,01,02,03,06,08,09,13,14,16,24,25,26,1.0,0.5,0.8*3C
$GPGSA,A,3,33,38,39,40,42,59,60,,,,,,1.0,0.5,0.8*37
$GPGST,084626.00,11.483,2.866,2.636,313.763,2.749,2.759,5.942*65
$GPGSV,3,1,11,28,67,014,43,29,18,096,40,10,15,176,38,03,25,313,36*75
$GPGSV,3,2,11,25,28,047,37,26,47,205,43,32,56,112,46,31,60,294,45*7D
$GPGSV,3,3,11,12,01,038,,01,03,277,,16,09,207,*4B
$GLGSV,2,1,07,77,71,250,36,65,19,143,32,78,14,224,39,67,47,330,37*6B
$GLGSV,2,2,07,76,52,028,41,66,69,126,38,68,01,325,*51
$GAGSV,3,1,09,29,70,337,44,30,37,050,38,19,25,307,29,21,28,197,37*63
$GAGSV,3,2,09,07,46,105,41,27,68,133,44,12,06,303,,10,02,324,*6D
$GAGSV,3,3,09,33,07,253,27*57
$GBGSV,7,1,27,24,82,278,45,07,11,174,33,05,22,248,31,38,27,183,37*64
$GBGSV,7,2,27,04,23,121,32,25,25,238,36,50,27,150,,62,24,119,*6E
$GBGSV,7,3,27,60,35,227,38,01,35,135,37,02,40,223,35,08,40,194,37*65
$GBGSV,7,4,27,59,38,139,40,26,43,048,41,13,46,206,39,03,46,183,39*60
$GBGSV,7,5,27,61,46,183,,09,59,279,40,42,53,158,42,33,64,299,45*65
$GBGSV,7,6,27,06,69,301,40,16,72,324,42,39,72,345,42,14,78,205,41*62
$GBGSV,7,7,27,10,05,183,29,21,05,146,33,40,07,161,36*5E
$GPZDA,084627.00,11,09,2025,,*65
$GPRMC,084627.00,A,3801.0440325,N,11227.1321461,E,0.0,,110925,5.7,W,A*01
$GPGLL,3801.0440325,N,11227.1321461,E,084627.00,A,A*6D
$GPGGA,084627.00,3801.0440325,N,11227.1321461,E,1,36,0.5,874.4979,M,-23.2601,M,,*49
$GPVTG,,T,,M,0.01,N,0.02,K,A*20
$GPGSA,A,3,03,10,25,26,28,29,31,32,,,,,1.0,0.5,0.8*3D
$GPGSA,A,3,66,67,76,77,78,,,,,,,,1.0,0.5,0.8*31
$GPGSA,A,3,07,21,27,29,30,,,,,,,,1.0,0.5,0.8*37
$GPGSA,A,3,01,03,06,08,09,13,14,16,24,25,26,33,1.0,0.5,0.8*3E
$GPGSA,A,3,38,39,40,42,59,60,,,,,,,1.0,0.5,0.8*37
$GPGST,084627.00,11.319,2.788,2.602,313.065,2.690,2.703,5.804*60
$GPGSV,3,1,11,28,67,014,43,29,18,096,41,10,15,176,38,03,25,313,36*74
$GPGSV,3,2,11,25,28,047,38,26,47,205,43,32,56,112,47,31,60,294,45*73
$GPGSV,3,3,11,12,01,038,,01,03,277,,16,09,207,*4B
$GLGSV,2,1,07,77,71,250,35,65,19,143,31,78,14,224,39,67,47,330,37*6B
$GLGSV,2,2,07,76,52,028,41,66,69,126,38,68,01,325,*51
$GAGSV,3,1,09,29,70,337,44,30,37,050,38,19,25,307,29,21,28,197,37*63
$GAGSV,3,2,09,07,46,105,41,27,68,133,44,12,06,303,,10,02,324,*6D
$GAGSV,3,3,09,33,07,253,28*58
$GBGSV,7,1,27,24,82,278,45,07,11,174,33,05,22,248,31,38,27,183,37*64
$GBGSV,7,2,27,04,23,121,32,25,25,238,36,50,27,150,,62,24,119,*6E
$GBGSV,7,3,27,60,35,227,39,01,35,135,37,02,40,223,35,08,40,194,37*64
$GBGSV,7,4,27,59,38,139,41,26,43,048,41,13,46,206,39,03,46,183,39*61
$GBGSV,7,5,27,61,46,183,,09,59,279,40,42,53,158,42,33,64,299,45*65
$GBGSV,7,6,27,06,69,301,40,16,72,324,43,39,72,345,42,14,78,205,41*63
$GBGSV,7,7,27,10,05,183,29,21,05,146,33,40,07,161,36*5E
$GPZDA,084628.00,11,09,2025,,*6A
$GPRMC,084628.00,A,3801.0440466,N,11227.1321428,E,0.0,,110925,5.7,W,A*03
$GPGLL,3801.0440466,N,11227.1321428,E,084628.00,A,A*6F
$GPGGA,084628.00,3801.0440466,N,11227.1321428,E,1,36,0.5,874.4955,M,-23.2601,M,,*45
$GPVTG,,T,,M,0.01,N,0.02,K,A*20
$GPGSA,A,3,03,10,25,26,28,29,31,32,,,,,1.0,0.5,0.8*3D
$GPGSA,A,3,66,67,76,77,78,,,,,,,,1.0,0.5,0.8*31
$GPGSA,A,3,07,21,27,29,30,,,,,,,,1.0,0.5,0.8*37
$GPGSA,A,3,01,03,06,08,09,13,14,16,24,25,26,33,1.0,0.5,0.8*3E
$GPGSA,A,3,38,39,40,42,59,60,,,,,,,1.0,0.5,0.8*37
$GPGST,084628.00,11.319,2.762,2.546,312.122,2.645,2.667,5.718*62
$GPGSV,3,1,11,28,67,014,43,29,18,096,40,10,15,176,38,03,25,313,36*75
$GPGSV,3,2,11,25,28,047,37,26,47,205,42,32,56,112,46,31,60,294,44*7D
$GPGSV,3,3,11,12,01,038,,01,03,277,,16,09,207,*4B
$GLGSV,2,1,07,77,71,251,35,65,19,143,31,78,14,225,39,67,47,330,37*6B
$GLGSV,2,2,07,76,52,028,41,66,69,126,38,68,01,325,*51
$GAGSV,3,1,09,29,70,337,44,30,37,050,38,19,25,307,29,21,28,197,37*63
$GAGSV,3,2,09,07,46,105,41,27,68,133,44,12,06,303,,10,02,324,*6D
$GAGSV,3,3,09,33,07,253,28*58
$GBGSV,7,1,27,24,82,278,45,07,11,174,34,05,22,248,31,38,27,183,38*6C
$GBGSV,7,2,27,04,23,121,32,25,25,238,37,50,27,150,,62,24,119,*6F
$GBGSV,7,3,27,60,35,227,39,01,35,135,38,02,40,223,35,08,40,194,37*6B
$GBGSV,7,4,27,59,38,139,41,26,43,048,42,13,46,206,39,03,46,183,39*62
$GBGSV,7,5,27,61,46,183,,09,59,279,41,42,53,159,43,33,64,299,46*67
$GBGSV,7,6,27,06,69,301,41,16,72,324,43,39,72,345,43,14,78,205,42*60
$GBGSV,7,7,27,10,05,183,30,21,05,146,33,40,07,161,37*57
$GPZDA,084629.00,11,09,2025,,*6B
$GPRMC,084629.00,A,3801.0440584,N,11227.1321427,E,0.0,,110925,5.7,W,A*00
$GPGLL,3801.0440584,N,11227.1321427,E,084629.00,A,A*6C
$GPGGA,084629.00,3801.0440584,N,11227.1321427,E,1,36,0.5,874.4892,M,-23.2601,M,,*4C
$GPVTG,,T,,M,0.02,N,0.04,K,A*25
$GPGSA,A,3,03,10,25,26,28,29,31,32,,,,,1.0,0.5,0.8*3D
$GPGSA,A,3,66,67,76,77,78,,,,,,,,1.0,0.5,0.8*31
$GPGSA,A,3,07,21,27,29,30,,,,,,,,1.0,0.5,0.8*37
$GPGSA,A,3,01,03,06,08,09,13,14,16,24,25,26,33,1.0,0.5,0.8*3E
$GPGSA,A,3,38,39,40,42,59,60,,,,,,,1.0,0.5,0.8*37
$GPGST,084629.00,11.296,2.783,2.620,317.578,2.710,2.695,5.826*69
$GPGSV,3,1,11,28,67,014,43,29,18,096,40,10,15,176,38,03,25,313,36*75
$GPGSV,3,2,11,25,28,047,37,26,47,205,42,32,56,112,46,31,60,294,44*7D
